adress,gu,dong,name,count,lat,long,years,sep_years
개포동 141,강남구,개포동,개포주공 1단지,337,37.478368,127.0614839,1982,30년이상
개포동 189,강남구,개포동,개포주공 4단지,188,37.4855371,127.0714351,1982,30년이상
개포동 187,강남구,개포동,개포주공 5단지,50,37.4875354,127.0686558,1983,30년이상
개포동 185,강남구,개포동,개포주공 6단지,131,37.4888326,127.071487,1983,30년이상
개포동 12,강남구,개포동,성원대치2단지아파트,204,37.4939654,127.0750977,1992,20~30년
개포동 656,강남구,개포동,시영,65,37.4785609,127.0542624,1984,30년이상
개포동 655-3,강남구,개포동,쌍용,1,37.4810335,127.0532554,1995,20~30년
개포동 1164-7,강남구,개포동,아람손프라자/비바빌,1,37.4727746,127.0523738,2001,10~20년
개포동 651-1,강남구,개포동,"우성9차아파트 901동, 902동",32,37.4848024,127.0571779,1991,20~30년
개포동 1260-11,강남구,개포동,우찬현대(1260-11),1,37.4793154,127.0489038,2006,10~20년
개포동 1164-28,강남구,개포동,포이벨리,3,37.4745812,127.0551887,2001,10~20년
논현동 196,강남구,논현동,거평프리젠,8,37.5062954,127.0276384,1996,20~30년
논현동 214-2,강남구,논현동,논현베르빌,6,37.5125829,127.032682,2002,10~20년
논현동 105,강남구,논현동,동현아파트 1~6,20,37.5193601,127.0366998,1985,30년이상
논현동 103,강남구,논현동,쌍용,12,37.5196689,127.0379979,1995,20~30년
논현동 105-4,강남구,논현동,한진로즈힐,7,37.5206817,127.037115,2004,10~20년
대치동 503,강남구,대치동,개포우성1,40,37.491182,127.05991,1983,30년이상
대치동 888,강남구,대치동,대치아이파크,71,37.495014,127.0545774,2008,10~20년
대치동 63,강남구,대치동,"대치우성아파트1동, 2동, 3동, 5동, 6동, 7동",7,37.5002033,127.0691228,1984,30년이상
대치동 907-2,강남구,대치동,대치한신휴플러스,9,37.5013596,127.0515885,2005,10~20년
대치동 670,강남구,대치동,동부센트레빌,71,37.4925092,127.0559479,2005,10~20년
대치동 985,강남구,대치동,래미안 대치 하이스턴,43,37.500937,127.0653883,1989,20~30년
대치동 1027,강남구,대치동,래미안대치팰리스,137,37.4994914,127.0610527,2015,10년미만
대치동 1025,강남구,대치동,롯데캐슬리베,14,37.4962859,127.053971,2008,10~20년
대치동 506,강남구,대치동,선경1차(1동-7동),67,37.4920987,127.0625605,1983,30년이상
대치동 890-49,강남구,대치동,선릉역대우아이빌(890-49),7,37.5044448,127.0515902,2004,10~20년
대치동 975-20,강남구,대치동,세영팔레스타운,3,37.5007327,127.062111,2002,10~20년
대치동 316,강남구,대치동,은마,325,37.4974576,127.0653265,1979,30년이상
대치동 891-6,강남구,대치동,테헤란로대우아이빌(891-6),11,37.5056037,127.0542018,2004,10~20년
대치동 902,강남구,대치동,포스코더샵,20,37.5040431,127.0572425,2004,10~20년
대치동 511,강남구,대치동,한보미도맨션1,92,37.4935161,127.0673376,1983,30년이상
대치동 933,강남구,대치동,한티(933-0),4,37.4989537,127.0570995,2004,10~20년
도곡동 467-6,강남구,도곡동,대림아크로빌,29,37.4881387,127.0511666,2002,10~20년
도곡동 527,강남구,도곡동,도곡렉슬,335,37.4936848,127.0507447,2006,10~20년
도곡동 933,강남구,도곡동,도곡쌍용예가,29,37.4879716,127.0380857,2011,10년미만
도곡동 966,강남구,도곡동,매봉삼성,17,37.4891712,127.0488071,1999,10~20년
도곡동 869,강남구,도곡동,삼익,20,37.4907129,127.0421113,1983,30년이상
도곡동 952-14,강남구,도곡동,원팰리스,1,37.4862038,127.0340128,2003,10~20년
도곡동 467,강남구,도곡동,타워팰리스1,85,37.4882818,127.0544123,2002,10~20년
도곡동 467-17,강남구,도곡동,타워팰리스2,57,37.4896405,127.0545117,2003,10~20년
도곡동 467-29,강남구,도곡동,타워팰리스3,22,37.4873934,127.0527274,2004,10~20년
도곡동 464,강남구,도곡동,한신(개포),30,37.4869126,127.0489647,1985,30년이상
도곡동 467-19,강남구,도곡동,현대비젼21,18,37.4873002,127.051556,1999,10~20년
삼성동 99-1,강남구,삼성동,골든빌(99-1),3,37.5177919,127.065143,1999,10~20년
삼성동 7-3,강남구,삼성동,래미안삼성2차,36,37.5161739,127.0434589,2007,10~20년
삼성동 11,강남구,삼성동,롯데캐슬프레미어,42,37.5151584,127.0451257,2007,10~20년
삼성동 14-1,강남구,삼성동,삼성동중앙하이츠빌리지,19,37.5159844,127.0462102,2004,10~20년
삼성동 4-6,강남구,삼성동,삼성동한솔아파트,19,37.5173694,127.0455489,1998,20~30년
삼성동 16-2,강남구,삼성동,삼성동힐스테이트 1단지,55,37.5162276,127.0485407,2008,10~20년
삼성동 104,강남구,삼성동,삼성풍림2차아파트,4,37.5159545,127.0625077,1998,20~30년
삼성동 19-4,강남구,삼성동,상아아파트,26,37.5176314,127.0499901,1981,30년이상
삼성동 64-7,강남구,삼성동,세방타운하우스,2,37.5174595,127.0529334,1998,20~30년
삼성동 87,강남구,삼성동,아이파크,27,37.5180985,127.0591595,2004,10~20년
삼성동 4-3,강남구,삼성동,푸른솔아파트1동,8,37.5177913,127.0460152,1996,20~30년
삼성동 50,강남구,삼성동,현대힐스테이트 2단지,46,37.5138493,127.0515142,2008,10~20년
세곡동 579,강남구,세곡동,강남엘에이치1단지,76,37.4692712,127.1073203,2013,10년미만
세곡동 533,강남구,세곡동,세곡푸르지오,71,37.4692712,127.1073203,2012,10년미만
수서동 746,강남구,수서동,까치마을,110,37.4846721,127.0873935,1993,20~30년
수서동 747,강남구,수서동,삼성,45,37.4848802,127.09066,1997,20~30년
수서동 708,강남구,수서동,삼익,42,37.4890673,127.101008,1983,30년이상
수서동 736,강남구,수서동,신동아,117,37.4870719,127.0983474,1992,20~30년
신사동 523-4,강남구,신사동,신사동씨티빌,2,37.5210669,127.0206195,2002,10~20년
신사동 622,강남구,신사동,신성아파트 101동,4,37.5261447,127.0320408,1996,20~30년
신사동 593-32,강남구,신사동,토미,5,37.5221919,127.0297501,2004,10~20년
압구정동 490,강남구,압구정동,영동한양아파트9동,54,37.5302705,127.0387567,1977,30년이상
압구정동 513,강남구,압구정동,한양아파트 55동,20,37.5289036,127.0419761,1979,30년이상
압구정동 486,강남구,압구정동,한양아파트 제45동,13,37.5308644,127.0368902,1978,30년이상
압구정동 369-1,강남구,압구정동,현대아파트 25동,50,37.5328218,127.0280273,1976,30년이상
압구정동 433,강남구,압구정동,현대아파트 제127동,15,37.527481,127.024268,1983,30년이상
압구정동 455,강남구,압구정동,현대아파트 제72동,15,37.5320757,127.0284556,1977,30년이상
압구정동 481,강남구,압구정동,현대아파트 제95동,27,37.5307261,127.0352887,1980,30년이상
압구정동 456,강남구,압구정동,현대아파트79동,55,37.5300542,127.028845,1978,30년이상
역삼동 755-4,강남구,역삼동,e-편한세상,68,37.4987189,127.0499436,2005,10~20년
역삼동 754,강남구,역삼동,개나리래미안,30,37.498551,127.0464387,2006,10~20년
역삼동 783-3,강남구,역삼동,갤러리하우스,1,37.4943792,127.0434418,2002,10~20년
역삼동 835-67,강남구,역삼동,금호어울림,27,37.4920581,127.0349054,2003,10~20년
역삼동 761-10,강남구,역삼동,대림역삼,12,37.4960577,127.0463178,1997,20~30년
역삼동 720-25,강남구,역삼동,대우디오빌,37,37.5013456,127.0427038,2002,10~20년
역삼동 763-16,강남구,역삼동,래미안그레이튼,47,37.4964269,127.0482989,2009,10년미만
역삼동 762-3,강남구,역삼동,래미안그레이튼(진달래2차),53,37.4953338,127.0472735,2011,10년미만
역삼동 747-5,강남구,역삼동,브라운스톤역삼,3,37.4956162,127.0378689,2004,10~20년
역삼동 778,강남구,역삼동,쎄비앙 101동,2,37.4957961,127.0428278,2007,10~20년
역삼동 713-11,강남구,역삼동,역삼 I'PARK,64,37.4994913,127.0466111,2006,10~20년
역삼동 757,강남구,역삼동,역삼래미안,69,37.4972705,127.0502289,2005,10~20년
역삼동 707-18,강남구,역삼동,역삼우정에쉐르2,5,37.5025992,127.0458512,2004,10~20년
역삼동 754-1,강남구,역삼동,역삼푸르지오,71,37.4976537,127.0467951,2006,10~20년
역삼동 836,강남구,역삼동,한스빌(836),14,37.4918016,127.0329659,1996,20~30년
역삼동 706-20,강남구,역삼동,한화진넥스빌,27,37.5019467,127.0442817,2001,10~20년
일원동 735,강남구,일원동,가람,25,37.4824572,127.0852937,1993,20~30년
일원동 716,강남구,일원동,목련타운,32,37.4849458,127.0851548,1993,20~30년
일원동 734,강남구,일원동,상록수,38,37.4819336,127.082142,1993,20~30년
일원동 718,강남구,일원동,샘터마을,34,37.4842931,127.082553,1994,20~30년
일원동 711,강남구,일원동,수서,45,37.492615,127.0902134,1992,20~30년
일원동 615,강남구,일원동,우성7,38,37.492341,127.0781235,1987,30년이상
일원동 719,강남구,일원동,푸른마을 아파트 101동~111동,67,37.4837623,127.0808047,1994,20~30년
자곡동 611,강남구,자곡동,래미안강남힐즈,69,37.474172,127.0950243,2014,10년미만
청담동 69-18,강남구,청담동,동양파라곤,8,37.5215874,127.0544198,2006,10~20년
청담동 129-7,강남구,청담동,빌폴라리스,3,37.5254584,127.05376,2009,10년미만
청담동 60,강남구,청담동,삼성청담공원아파트,26,37.5222908,127.0505578,1999,10~20년
청담동 127-37,강남구,청담동,상지리츠빌5B,1,37.5263003,127.0523363,2001,10~20년
청담동 128-18,강남구,청담동,상지리츠빌카일룸2차,2,37.5263478,127.0541029,2006,10~20년
청담동 104-13,강남구,청담동,씨티2(104-13),1,37.5283982,127.048781,1992,20~30년
청담동 102,강남구,청담동,연세리버테라스,2,37.5288701,127.0466276,2003,10~20년
청담동 15,강남구,청담동,이편한세상,6,37.5205742,127.0450669,2005,10~20년
청담동 122-35,강남구,청담동,청담 신원아침도시마인,8,37.5263893,127.0496177,2013,10년미만
청담동 134-15,강남구,청담동,청담삼익아파트,55,37.5232742,127.0591658,1980,30년이상
청담동 134-38,강남구,청담동,청담자이,41,37.5235476,127.0574077,2012,10년미만
청담동 127-31,강남구,청담동,청담현대3차아파트,23,37.5268675,127.052836,1999,10~20년
청담동 106,강남구,청담동,현대한강,3,37.5280387,127.0502451,1992,20~30년
강일동 695,강동구,강일동,강일리버파크10단지,19,37.5599813,127.1806821,2009,10년미만
강일동 707,강동구,강일동,고덕리엔파크1단지,18,37.5609818,127.171693,2011,10년미만
고덕동 499,강동구,고덕동,고덕 아이파크,112,37.5589219,127.1551489,2011,10년미만
고덕동 688,강동구,고덕동,고덕래미안 힐스테이트아파트,275,37.0372129,127.0243352,2016,10년미만
고덕동 312,강동구,고덕동,배재현대,53,37.5563298,127.1522909,1995,20~30년
길동 339-1,강동구,길동,동서울오네뜨,11,37.5425714,127.1436395,2009,10년미만
길동 383-6,강동구,길동,동심훼밀리,4,37.5391663,127.1368291,2002,10~20년
길동 53,강동구,길동,삼익파크맨션,138,37.5433988,127.1485231,1982,30년이상
길동 160,강동구,길동,신동아,154,37.5396021,127.1494478,1992,20~30년
길동 382-6,강동구,길동,우성,3,37.5388104,127.1373221,1996,20~30년
길동 385-4,강동구,길동,이스트드림힐,8,37.5378543,127.1365716,2003,10~20년
길동 415-16,강동구,길동,청광플러스원큐브3차,7,37.5363563,127.1362663,2014,10년미만
길동 456-2,강동구,길동,하이브,7,37.5353382,127.1373813,2006,10~20년
길동 384-1,강동구,길동,한빛골드빌1차,11,37.5384632,127.1363009,2001,10~20년
둔촌동 94-16,강동구,둔촌동,동아,3,37.5287327,127.1444584,1992,20~30년
둔촌동 170-1,강동구,둔촌동,둔촌주공1단지,345,37.5268861,127.1388295,1980,30년이상
둔촌동 174-1,강동구,둔촌동,둔촌주공2단지,210,37.5225272,127.1376533,1980,30년이상
둔촌동 630,강동구,둔촌동,둔촌푸르지오,96,37.5341192,127.146446,2010,10년미만
둔촌동 555,강동구,둔촌동,신동아파밀리에,34,37.5291205,127.1417805,2002,10~20년
둔촌동 546,강동구,둔촌동,신성둔촌미소지움1,51,37.5278875,127.1427122,1998,20~30년
둔촌동 134-10,강동구,둔촌동,신성둔촌미소지움2,35,37.5272708,127.1437884,2000,10~20년
둔촌동 556,강동구,둔촌동,암펠로스타워,5,37.5287781,127.1431444,2006,10~20년
둔촌동 64,강동구,둔촌동,청호 뜨레피움 퍼스트 아파트,12,37.5334717,127.1420226,2016,10년미만
둔촌동 621,강동구,둔촌동,초원동아,21,37.5332363,127.145595,1997,20~30년
둔촌동 30-4,강동구,둔촌동,현대1차아파트,74,37.5318428,127.1465296,1984,30년이상
둔촌동 89,강동구,둔촌동,현대4,22,37.5295973,127.1435276,1996,20~30년
명일동 257,강동구,명일동,고덕주공9,141,37.5477835,127.1508034,1985,30년이상
명일동 332,강동구,명일동,명일엘지,101,37.5488625,127.1462428,1999,10~20년
명일동 270,강동구,명일동,삼익가든,66,37.547216,127.1475845,1984,30년이상
명일동 15,강동구,명일동,삼익그린2차,267,37.5521991,127.1484932,1983,30년이상
명일동 357,강동구,명일동,에스엠해그린,3,37.5452295,127.1457558,2004,10~20년
명일동 54,강동구,명일동,한양,36,37.5503962,127.1551501,1986,30년이상
명일동 251-1,강동구,명일동,현대(명일),24,37.5483935,127.1487967,1988,30년이상
상일동 490,강동구,상일동,고덕리엔파크3단지,72,37.5525612,127.1752562,2011,10년미만
상일동 121,강동구,상일동,주공3,20,37.5551975,127.1686842,1983,30년이상
상일동 131,강동구,상일동,주공5,15,37.5520084,127.1669847,1983,30년이상
상일동 124,강동구,상일동,주공6,96,37.5522472,127.1706987,1983,30년이상
상일동 476,강동구,상일동,중앙하이츠,37,37.550417,127.1595919,1992,20~30년
성내동 244-8,강동구,성내동,늘조은,7,37.5343162,127.1352557,2003,10~20년
성내동 13-15,강동구,성내동,동남드림빌,3,37.5365367,127.1277112,2006,10~20년
성내동 419-1,강동구,성내동,둔촌역청구,20,37.5293785,127.133059,1999,10~20년
성내동 565,강동구,성내동,선광,3,37.5271274,127.1265434,1997,20~30년
성내동 590,강동구,성내동,성내동삼성아파트,148,37.5312336,127.1263066,1999,10~20년
성내동 593,강동구,성내동,영풍마드레빌,10,37.5272062,127.1228316,2002,10~20년
성내동 459-2,강동구,성내동,청구빌라트,2,37.5269595,127.122365,1999,10~20년
성내동 448-14,강동구,성내동,하나플러스,4,37.5240327,127.1300097,2003,10~20년
성내동 597,강동구,성내동,한솔애리즈2차,4,37.5289172,127.1341708,2003,10~20년
성내동 244-5,강동구,성내동,한양립스,5,37.5341153,127.135757,2014,10년미만
성내동 30-2,강동구,성내동,현대,7,37.5351532,127.1267972,1987,30년이상
성내동 455-3,강동구,성내동,호암아펙스,5,37.5285166,127.1217686,2006,10~20년
암사동 414-2,강동구,암사동,롯데캐슬퍼스트,342,37.5563679,127.1419695,2008,10~20년
암사동 509,강동구,암사동,선사현대아파트,333,37.552482,127.1256829,2000,10~20년
암사동 493-14,강동구,암사동,중앙하이츠,12,37.5511824,127.1321093,1992,20~30년
암사동 413,강동구,암사동,프라이어팰리스,226,37.5535701,127.1393668,2007,10~20년
암사동 442-1,강동구,암사동,한강현대,45,37.5552654,127.1317903,1999,10~20년
암사동 504-8,강동구,암사동,한건,3,37.5528241,127.1277126,2001,10~20년
암사동 400,강동구,암사동,현대홈타운,47,37.5565995,127.1390004,2004,10~20년
천호동 46,강동구,천호동,강동이루미,4,37.5437299,127.1403739,2005,10~20년
천호동 447-17,강동구,천호동,강동헤르셔,13,37.5366104,127.1333102,2015,10년미만
천호동 568,강동구,천호동,강변그대가 리버뷰,30,37.5478532,127.1232337,2007,10~20년
천호동 570,강동구,천호동,강변그대가갤럭시,14,37.5464948,127.122557,2009,10년미만
천호동 49-8,강동구,천호동,대명사이버,5,37.5433406,127.1401261,2001,10~20년
천호동 425-5,강동구,천호동,대우한강베네시티,30,37.540481,127.1249608,2007,10~20년
천호동 414,강동구,천호동,두산위브센티움,20,37.5393795,127.1269776,2004,10~20년
천호동 317-31,강동구,천호동,부강,2,37.5477564,127.1252424,2006,10~20년
천호동 528,강동구,천호동,삼성,36,37.5383919,127.1350491,1997,20~30년
천호동 49-4,강동구,천호동,천호1차예전이룸,6,37.5431786,127.1391593,2004,10~20년
천호동 50,강동구,천호동,천호2차우림루미아트,6,37.5430541,127.1406284,2004,10~20년
천호동 333-55,강동구,천호동,천호e편한세상,17,37.5443975,127.1242983,2005,10~20년
천호동 55-4,강동구,천호동,천호롯데,9,37.5415404,127.1379107,1999,10~20년
천호동 410-100,강동구,천호동,코오롱상가,27,37.5386759,127.1283324,1988,30년이상
천호동 338-20,강동구,천호동,한건브리앙,7,37.5427224,127.1223613,2004,10~20년
천호동 237,강동구,천호동,한신,38,37.545712,127.1347936,1991,20~30년
천호동 166-109,강동구,천호동,현진에스페랑스,2,37.5380209,127.1310285,2004,10~20년
미아동 796,강북구,미아동,경남아너스빌,19,37.6288606,127.0186528,2008,10~20년
미아동 1351,강북구,미아동,두원프라자,5,37.62252,127.0270305,1996,20~30년
미아동 813,강북구,미아동,래미안트리베라1단지,80,37.6142301,127.0208782,2010,10년미만
미아동 797,강북구,미아동,미아1차래미안,20,37.6256766,127.0202047,2006,10~20년
미아동 474,강북구,미아동,미아동부센트레빌,53,37.6136035,127.0257297,2006,10~20년
미아동 137-7,강북구,미아동,신대상,1,37.6189237,127.0310465,2002,10~20년
미아동 152,강북구,미아동,요진,13,37.6334239,127.0268657,2005,10~20년
미아동 561-2,강북구,미아동,현대성우,12,37.6171833,127.0220243,1998,20~30년
번동 656,강북구,번동,금호,13,37.6305353,127.0355544,1998,20~30년
번동 118-15,강북구,번동,꿈의숲수림채,2,37.623972,127.045394,2006,10~20년
번동 204,강북구,번동,신원,26,37.6257387,127.043364,2000,10~20년
번동 760,강북구,번동,오동공원현대,16,37.6313576,127.0355143,2001,10~20년
번동 242,강북구,번동,주공1단지,138,37.6245804,127.0470877,1991,20~30년
번동 148-494,강북구,번동,현대(148-494),5,37.6249254,127.0375244,1997,20~30년
번동 418-3,강북구,번동,효성인텔리안,10,37.6386636,127.0270104,2005,10~20년
수유동 553-61,강북구,수유동,극동,29,37.6419848,127.0123693,1992,20~30년
수유동 45-93,강북구,수유동,대성월드빌,1,37.6351437,127.0214967,2002,10~20년
수유동 730,강북구,수유동,래미안수유,32,37.6446258,127.0184295,2001,10~20년
수유동 205,강북구,수유동,수유벽산1차,94,37.6421703,127.0189389,1993,20~30년
수유동 729,강북구,수유동,수유현대,6,37.6453609,127.0185173,2000,10~20년
우이동 342,강북구,우이동,대우,17,37.6551449,127.0112601,2000,10~20년
가양동 1461,강서구,가양동,가양2단지(성지),168,37.5703714,126.8474442,1992,20~30년
가양동 1485,강서구,가양동,가양6단지,149,37.5631529,126.8592772,1992,20~30년
가양동 448-1,강서구,가양동,가양강나루현대,58,36.3491962,127.4402352,1999,10~20년
가양동 1490,강서구,가양동,가양도시개발9-2단지,102,37.5586974,126.8636778,1993,20~30년
가양동 14-3,강서구,가양동,가양우성,38,37.562252,126.8540764,1990,20~30년
가양동 448,강서구,가양동,강나루2현대,4,37.5612647,126.8558686,2001,10~20년
가양동 1475,강서구,가양동,강변,116,37.5651111,126.8554837,1992,20~30년
가양동 1500,강서구,가양동,강서한강자이,70,37.5648322,126.8342406,2013,10년미만
가양동 1474,강서구,가양동,대림경동,35,37.5662269,126.8539397,1993,20~30년
가양동 448-9,강서구,가양동,빛고을우방,18,36.3481304,127.440898,1999,10~20년
가양동 1467,강서구,가양동,중앙하이츠,12,37.56974,126.8491247,1992,20~30년
가양동 1495,강서구,가양동,한보구암마을,34,37.568067,126.8489569,1999,10~20년
공항동 1374,강서구,공항동,공항동부센트레빌,17,37.5606,126.8081657,2009,10년미만
내발산동 715-5,강서구,내발산동,광성금강,5,37.5486424,126.8336941,2001,10~20년
내발산동 733,강서구,내발산동,내발산우신웨스트빌,4,37.5533903,126.8377555,2005,10~20년
내발산동 741,강서구,내발산동,마곡수명산파크2단지,29,37.5543298,126.8274306,2007,10~20년
내발산동 657,강서구,내발산동,우장산힐스테이트,142,37.5560356,126.840219,2005,10~20년
내발산동 672-15,강서구,내발산동,원다벨라빌,2,37.553571,126.8405481,2001,10~20년
내발산동 688-5,강서구,내발산동,이너스,2,37.5527871,126.8315019,2003,10~20년
내발산동 665-17,강서구,내발산동,천우네오젠,1,37.5547059,126.8388578,2006,10~20년
내발산동 711-6,강서구,내발산동,청솔수(711-6),2,37.5500954,126.8325613,2007,10~20년
내발산동 738,강서구,내발산동,청솔숲속마을 102동,4,37.5518307,126.8398689,2007,10~20년
내발산동 722-16,강서구,내발산동,태승훼미리,5,37.5482324,126.8351513,2004,10~20년
등촌동 631-9,강서구,등촌동,대동황토방,30,37.5560243,126.8624825,2000,10~20년
등촌동 694,강서구,등촌동,대림,38,37.562539,126.8465439,1995,20~30년
등촌동 707,강서구,등촌동,"등촌7,8단지주공아파트",46,37.5607314,126.851613,1994,20~30년
등촌동 641-4,강서구,등촌동,등촌동보람쉬움아파트,4,37.5561214,126.8572329,2003,10~20년
등촌동 715,강서구,등촌동,등촌동아이파크,116,37.5437876,126.8604505,2004,10~20년
등촌동 630-3,강서구,등촌동,우성,15,37.5572933,126.8597174,1996,20~30년
등촌동 562-5,강서구,등촌동,임광,16,37.5400888,126.8633402,2000,10~20년
등촌동 702,강서구,등촌동,주공10,53,37.5623301,126.8484034,1995,20~30년
등촌동 688,강서구,등촌동,주공3,79,37.5616888,126.8411456,1983,30년이상
등촌동 695,강서구,등촌동,주공5,92,37.5604386,126.8447789,1983,30년이상
등촌동 701,강서구,등촌동,진로아파트,28,37.5597721,126.8471049,1994,20~30년
등촌동 654-79,강서구,등촌동,풍성애뜨란아파트,2,37.5554137,126.8574712,2016,10년미만
마곡동 717,강서구,마곡동,마곡금호어울림,8,37.574442,126.8374929,2005,10~20년
마곡동 743,강서구,마곡동,마곡엠밸리6단지,18,37.5764888,126.8307466,2014,10년미만
마곡동 741,강서구,마곡동,마곡엠밸리8단지,2,37.5764888,126.8307466,2016,10년미만
마곡동 750,강서구,마곡동,마곡엠벨리(14단지),22,37.5764888,126.8307466,2014,10년미만
마곡동 751,강서구,마곡동,마곡엠벨리(15단지),19,37.5764888,126.8307466,2014,10년미만
마곡동 429,강서구,마곡동,벽산,37,37.5756747,126.8376866,1999,10~20년
마곡동 716,강서구,마곡동,한솔솔파크,20,37.5696194,126.8231883,2005,10~20년
방화동 887,강서구,방화동,개화산경남아너스빌,9,37.571871,126.8086268,2007,10~20년
방화동 867,강서구,방화동,길성그랑프리텔,7,37.5691495,126.8162023,2002,10~20년
방화동 817,강서구,방화동,동성,55,37.5795421,126.8121795,1993,20~30년
방화동 890,강서구,방화동,마곡푸르지오,25,37.5700024,126.821748,2008,10~20년
방화동 871,강서구,방화동,방신서광,8,37.5720209,126.8106247,2003,10~20년
방화동 852,강서구,방화동,방화12도시개발공사,85,37.5707897,126.8068328,1994,20~30년
방화동 546-1,강서구,방화동,방화3차우림필유,11,37.5681192,126.8082734,2005,10~20년
방화동 814,강서구,방화동,방화5,89,37.5772126,126.8103621,1994,20~30년
방화동 839,강서구,방화동,방화그린,108,37.574644,126.8189919,1993,20~30년
방화동 585-4,강서구,방화동,삼미,16,37.5674706,126.8085599,1982,30년이상
방화동 858,강서구,방화동,삼성꽃마을,16,37.5720871,126.8130881,1997,20~30년
방화동 796,강서구,방화동,신동아,23,37.5698692,126.8158151,1992,20~30년
방화동 868,강서구,방화동,신안네트빌1단지,14,37.5711117,126.8100811,2002,10~20년
방화동 873,강서구,방화동,우림루미아트,4,37.5717784,126.8150004,2003,10~20년
방화동 841,강서구,방화동,장미,33,37.5744082,126.8173972,1994,20~30년
방화동 832,강서구,방화동,청솔,51,37.5755568,126.8129764,1994,20~30년
방화동 860,강서구,방화동,치현마을서광,13,37.5792992,126.8193112,1998,20~30년
염창동 240-1,강서구,염창동,강변월드메르디앙,20,37.557685,126.865401,2010,10년미만
염창동 300,강서구,염창동,강변한솔솔파크,32,37.5566947,126.8665207,2005,10~20년
염창동 280,강서구,염창동,극동상록수,18,37.5487744,126.872325,1999,10~20년
염창동 240-32,강서구,염창동,금호타운,34,37.5562443,126.8651196,1999,10~20년
염창동 294,강서구,염창동,길훈,4,37.5557753,126.8678927,1999,10~20년
염창동 262-2,강서구,염창동,대림,12,37.5482413,126.8754791,1995,20~30년
염창동 292,강서구,염창동,동아,72,37.554456,126.8729524,1992,20~30년
염창동 257,강서구,염창동,리버펠리스1동,1,37.5509894,126.8771727,2001,10~20년
염창동 290,강서구,염창동,벽산늘푸른,25,37.5579625,126.8659582,1998,20~30년
염창동 248-3,강서구,염창동,삼성하나로,20,37.5516302,126.8717139,1994,20~30년
염창동 244-2,강서구,염창동,삼성한마음,41,37.5544448,126.8682026,1995,20~30년
염창동 250-1,강서구,염창동,삼현팰리채,2,37.5504906,126.8738123,2008,10~20년
염창동 264-18,강서구,염창동,송촌,4,37.5494681,126.8727899,2005,10~20년
염창동 289,강서구,염창동,신동아,37,37.555035,126.8689633,1992,20~30년
염창동 305,강서구,염창동,염창1차보람더하임,17,37.5515542,126.8703581,2008,10~20년
염창동 271-5,강서구,염창동,염창2차보람,2,37.5523362,126.8673382,2006,10~20년
염창동 302,강서구,염창동,염창2차한화꿈에그린,15,37.5516435,126.8667907,2006,10~20년
염창동 301,강서구,염창동,염창3차보람,1,37.5527838,126.8738128,2006,10~20년
염창동 307,강서구,염창동,이너스내안에,5,37.5540319,126.8717993,2011,10년미만
염창동 298,강서구,염창동,일신건영휴먼빌,16,37.552049,126.8733927,2004,10~20년
염창동 263-2,강서구,염창동,주상복합태진가람,5,37.5494819,126.874425,1995,20~30년
염창동 270-1,강서구,염창동,태영,32,37.55338,126.8670949,1999,10~20년
염창동 288,강서구,염창동,현대1,29,37.5527629,126.8750275,1994,20~30년
염창동 249-11,강서구,염창동,현대2,13,37.5510164,126.8727292,1993,20~30년
염창동 291,강서구,염창동,현대3,12,37.5520168,126.8759667,1996,20~30년
화곡동 925-3,강서구,화곡동,SR vill(925-3),29,37.5296129,126.8426931,2013,10년미만
화곡동 1071-19,강서구,화곡동,강서뉴타워,27,37.5390419,126.8354199,2013,10년미만
화곡동 1165,강서구,화곡동,강서힐스테이트,189,37.5381184,126.8471024,2014,10년미만
화곡동 1111-3,강서구,화곡동,경동엠파이어스테이트,6,37.5542856,126.8518115,2012,10년미만
화곡동 918-14,강서구,화곡동,도양라비앙아파트,2,37.5296746,126.8444854,2016,10년미만
화곡동 24-147,강서구,화곡동,부영,1,37.5452589,126.8467921,2000,10~20년
화곡동 917-14,강서구,화곡동,삼성다빈치(917-14),12,37.5293389,126.8437879,2015,10년미만
화곡동 899-2,강서구,화곡동,세림,3,37.5302463,126.8466522,2015,10년미만
화곡동 24-124,강서구,화곡동,신원1차(24-124),1,37.5459463,126.845866,2001,10~20년
화곡동 472-13,강서구,화곡동,양용아네스,2,37.5364274,126.8575867,2003,10~20년
화곡동 56-252,강서구,화곡동,우성트윈캐슬A동,2,37.5416604,126.8506088,2003,10~20년
화곡동 1148,강서구,화곡동,우장산롯데,11,37.5523962,126.8463664,2004,10~20년
화곡동 1145,강서구,화곡동,우장산롯데캐슬,61,37.5554767,126.8484772,2003,10~20년
화곡동 1159,강서구,화곡동,"우장산아이파크,이편한세상",233,37.549302,126.8386293,2008,10~20년
화곡동 1158,강서구,화곡동,우장산에스케이뷰,16,37.5480734,126.8431716,2006,10~20년
화곡동 927-1,강서구,화곡동,웰라이빌,10,37.5285275,126.8427291,2000,10~20년
화곡동 901-7,강서구,화곡동,제일에비앙,1,37.5291448,126.8455921,2004,10~20년
화곡동 351-89,강서구,화곡동,중앙화곡하이츠,45,37.5356383,126.8436307,1988,30년이상
화곡동 926-4,강서구,화곡동,지석,3,37.5287512,126.8422041,2002,10~20년
화곡동 367-30,강서구,화곡동,진민그린상가(367-30),4,37.5376157,126.8409332,1996,20~30년
화곡동 1009-8,강서구,화곡동,타워빌,2,37.5471818,126.8346041,2001,10~20년
화곡동 1155,강서구,화곡동,탑건진선미,8,37.5363128,126.846268,2005,10~20년
화곡동 1140,강서구,화곡동,태영방송인,11,37.5374374,126.8536835,2000,10~20년
화곡동 474-18,강서구,화곡동,푸른숲2차(474-18),4,37.5375114,126.855736,2007,10~20년
화곡동 1149,강서구,화곡동,화곡보람,11,37.5540033,126.8547528,2004,10~20년
화곡동 1091,강서구,화곡동,화곡푸르지오,149,37.5443631,126.8315655,2002,10~20년
남현동 1053-4,관악구,남현동,기아하이츠빌,1,37.4748405,126.9716442,2004,10~20년
남현동 602-163,관악구,남현동,동송하이클래스,1,37.4726006,126.9794473,2003,10~20년
남현동 1085-17,관악구,남현동,솔본,3,37.4738631,126.9774845,2004,10~20년
남현동 1132,관악구,남현동,흥화브라운빌,3,37.4711131,126.9730135,2003,10~20년
봉천동 1700,관악구,봉천동,갑을,8,37.474957,126.9520895,1998,20~30년
봉천동 1701,관악구,봉천동,건영6,11,37.4771165,126.9518479,1999,10~20년
봉천동 1719,관악구,봉천동,관악동부센트레빌,47,37.4871701,126.9509001,2004,10~20년
봉천동 1712,관악구,봉천동,관악드림(동아),297,37.4897544,126.9505066,2003,10~20년
봉천동 1727,관악구,봉천동,관악유앤아이,13,37.4867318,126.9505557,2009,10년미만
봉천동 1726,관악구,봉천동,관악청광플러스원,8,37.4873742,126.9443751,2009,10년미만
봉천동 875-1,관악구,봉천동,관악캠퍼스타워,6,37.481105,126.950276,1998,20~30년
봉천동 1728,관악구,봉천동,관악파크푸르지오,32,36.1356633,128.2049928,2014,10년미만
봉천동 1717,관악구,봉천동,관악푸르지오,173,37.4871804,126.9608381,2004,10~20년
봉천동 1522-33,관악구,봉천동,금강아미움(104동),1,37.4817749,126.9401279,2010,10년미만
봉천동 296,관악구,봉천동,낙성대현대(296),9,37.4749727,126.9593622,1998,20~30년
봉천동 905-10,관악구,봉천동,노블레스,4,37.4852465,126.9419186,2005,10~20년
봉천동 856-1,관악구,봉천동,대우디오슈페리움2단지,15,37.4801549,126.9529757,2007,10~20년
봉천동 1536-2,관악구,봉천동,대원(1536-20),1,37.4788578,126.94048,2003,10~20년
봉천동 1708,관악구,봉천동,두산,166,37.4867442,126.9453733,2000,10~20년
봉천동 729-22,관악구,봉천동,롯데스카이,10,37.4905756,126.9249911,1997,20~30년
봉천동 893-12,관악구,봉천동,마에스트로캠퍼스타운,12,37.4821747,126.9473529,2012,10년미만
봉천동 1531-39,관악구,봉천동,무학,6,37.4810997,126.9387829,1998,20~30년
봉천동 1718,관악구,봉천동,벽산블루밍,218,37.4892615,126.9447409,2005,10~20년
봉천동 1716,관악구,봉천동,벽산타운II,19,37.4925868,126.9460002,2003,10~20년
봉천동 1698-1,관악구,봉천동,보라매삼성,38,37.4939996,126.927872,1996,20~30년
봉천동 1703,관악구,봉천동,봉천동아,102,37.4896844,126.9557273,2000,10~20년
봉천동 180-376,관악구,봉천동,새진5차,3,37.4693525,126.9665102,2005,10~20년
봉천동 1591-2,관악구,봉천동,서울대입구삼성,16,37.4762143,126.9520244,1999,10~20년
봉천동 1729,관악구,봉천동,서희스타힐스,19,37.4794085,126.9535822,2014,10년미만
봉천동 1706,관악구,봉천동,우성,145,37.4850876,126.959439,1996,20~30년
봉천동 1707,관악구,봉천동,은천1,16,37.4713573,126.9648625,2001,10~20년
봉천동 1707-1,관악구,봉천동,은천2단지아파트,22,37.4699634,126.9645494,2000,10~20년
봉천동 1021,관악구,봉천동,일두(1021),31,37.4888365,126.9547045,1985,30년이상
봉천동 863-9,관악구,봉천동,코스모블루,8,37.4798734,126.9518151,2012,10년미만
봉천동 1608-23,관악구,봉천동,푸르빌3차,1,37.4760038,126.9543937,2004,10~20년
봉천동 869-3,관악구,봉천동,프라비다1,16,37.4808752,126.9512889,2012,10년미만
봉천동 867-12,관악구,봉천동,프라비다2,25,37.4796679,126.9504815,2013,10년미만
봉천동 729-32,관악구,봉천동,해태보라매타워,13,37.491172,126.9249803,1996,20~30년
봉천동 1000,관악구,봉천동,현대(관악),127,37.4921791,126.9583387,1992,20~30년
신림동 1703-1,관악구,신림동,LIG 대학마을,68,37.4669806,126.9426441,1996,20~30년
신림동 1644,관악구,신림동,강남,178,37.4839683,126.9050758,1974,30년이상
신림동 746-43,관악구,신림동,건영1,35,37.4763596,126.912461,1984,30년이상
신림동 1735-1,관악구,신림동,관악산휴먼시아 1단지,65,37.4616465,126.9211224,2008,10~20년
신림동 1735,관악구,신림동,관악산휴먼시아 2단지,210,37.4589991,126.9200268,2008,10~20년
신림동 1693,관악구,신림동,국제산장,48,37.460752,126.9277784,1993,20~30년
신림동 1425-7,관악구,신림동,그랜드타워,19,37.4868921,126.9296562,2016,10년미만
신림동 1705,관악구,신림동,금호(1차),14,37.4653866,126.9375129,1997,20~30년
신림동 1695,관악구,신림동,동부,16,37.4804076,126.9293925,1993,20~30년
신림동 1563-85,관악구,신림동,미래,2,37.474296,126.9159718,1997,20~30년
신림동 1714,관악구,신림동,삼성산주공(주공3단지),72,37.4623828,126.9261771,2000,10~20년
신림동 1724,관악구,신림동,서초,5,37.4638885,126.93215,2003,10~20년
신림동 10-622,관악구,신림동,성우,12,37.483515,126.9374405,1998,20~30년
신림동 1736,관악구,신림동,신림2차푸르지오,35,37.4612803,126.9198007,2007,10~20년
신림동 1734,관악구,신림동,신림동부센트레빌,14,37.4731684,126.9163216,2006,10~20년
신림동 1722,관악구,신림동,신림동신도브래뉴,20,37.4836026,126.9115328,2003,10~20년
신림동 1730,관악구,신림동,신림푸르지오,81,37.4791136,126.9104549,2005,10~20년
신림동 1694,관악구,신림동,신림현대,111,37.4751189,126.9325194,1993,20~30년
신림동 534-1,관악구,신림동,아데나,25,37.4857428,126.9118512,2010,10년미만
신림동 1720,관악구,신림동,에셀비전21,4,37.479543,126.9234792,2003,10~20년
신림동 1715,관악구,신림동,우방,15,37.4888427,126.9188498,1999,10~20년
신림동 1727,관악구,신림동,임광관악파크,33,37.469634,126.9191243,2003,10~20년
신림동 1684-7,관악구,신림동,중앙힐 101동,5,37.4733875,126.9124102,2001,10~20년
신림동 86-3,관악구,신림동,청암두산위브센티움,11,37.4825364,126.9302452,2005,10~20년
신림동 1712,관악구,신림동,초원,6,37.4733349,126.9141384,1999,10~20년
신림동 1475-26,관악구,신림동,테라스시티,9,37.4803064,126.9143496,2013,10년미만
신림동 1738-1,관악구,신림동,파로스프라자(1738-1),2,37.4640262,126.919448,2009,10년미만
신림동 255-189,관악구,신림동,현대,28,37.4626176,126.9383251,1987,30년이상
광장동 567,광진구,광장동,광나루현대,35,37.5471261,127.1085599,1996,20~30년
광장동 579,광진구,광장동,광장11현대홈타운,8,37.5432851,127.0974253,2003,10~20년
광장동 582,광진구,광장동,광장힐스테이트,41,37.5478086,127.1052825,2012,10년미만
광장동 218-1,광진구,광장동,극동1,84,37.5433638,127.1044585,1985,30년이상
광장동 578,광진구,광장동,금호베스트빌,23,37.5438202,127.0938905,2001,10~20년
광장동 561,광진구,광장동,삼성광장1,9,37.5414238,127.1029076,1987,30년이상
광장동 570,광진구,광장동,상록타워아파트,7,37.5424185,127.1011248,1997,20~30년
광장동 250,광진구,광장동,신동아파밀리에,40,37.5468759,127.1047922,2002,10~20년
광장동 184-1,광진구,광장동,연세리버빌6차,2,37.5484159,127.1089734,1997,20~30년
광장동 145-8,광진구,광장동,워커힐,27,37.5503268,127.1069113,1978,30년이상
광장동 148-4,광진구,광장동,워커힐푸르지오,41,37.5496546,127.1089338,1987,30년이상
광장동 484,광진구,광장동,현대3,101,37.5406764,127.098826,1996,20~30년
광장동 554-7,광진구,광장동,현대5,48,37.5396716,127.1002287,1989,20~30년
광장동 105,광진구,광장동,현대빌라트,1,37.5516944,127.1103525,1994,20~30년
광장동 577,광진구,광장동,현대파크빌,80,37.5438979,127.1014612,2000,10~20년
구의동 587-54,광진구,구의동,구의현대7단지현대홈타운,33,37.536675,127.0910916,1997,20~30년
구의동 657,광진구,구의동,성동강변파크빌101(강변타워),7,37.5377048,127.092833,2001,10~20년
구의동 658,광진구,구의동,세양,12,37.5375462,127.0937661,2002,10~20년
구의동 662,광진구,구의동,아차산한라아파트,7,37.5539333,127.0971498,2009,10년미만
구의동 663,광진구,구의동,아차산휴먼시아,16,37.5478829,127.0931612,2010,10년미만
구의동 208-52,광진구,구의동,우신,2,37.5414711,127.092114,2003,10~20년
구의동 631-1,광진구,구의동,현대프라임,142,37.5373373,127.0976724,1997,20~30년
군자동 503,광진구,군자동,광진We’vePark,8,37.548396,127.0710724,2008,10~20년
군자동 99,광진구,군자동,일성파크,25,37.5512522,127.0726711,1996,20~30년
자양동 779-11,광진구,자양동,구의역현대하이엘,9,37.5378709,127.0829527,2005,10~20년
자양동 665,광진구,자양동,그린,1,37.5299203,127.0829878,2003,10~20년
자양동 227-7,광진구,자양동,더샵스타시티,106,37.5376127,127.0726183,2007,10~20년
자양동 644,광진구,자양동,로얄동아,33,37.5281282,127.0814858,1999,10~20년
자양동 579,광진구,자양동,우성1,69,37.5342119,127.0745432,1988,30년이상
자양동 520-2,광진구,자양동,우성2,41,37.5332775,127.0738487,1989,20~30년
자양동 578,광진구,자양동,우성4,8,37.5351012,127.0758051,1989,20~30년
자양동 515-1,광진구,자양동,우성6,7,37.5364813,127.0704802,1992,20~30년
자양동 855,광진구,자양동,이튼타워리버3차,31,37.5325759,127.0679308,2007,10~20년
자양동 658-14,광진구,자양동,자양,15,37.532478,127.0844455,1981,30년이상
자양동 761,광진구,자양동,자양2현대,19,37.5341534,127.0706505,1995,20~30년
자양동 645-5,광진구,자양동,자양동현대,30,37.5280113,127.0824489,1993,20~30년
자양동 783-1,광진구,자양동,자양우성7,39,37.5363257,127.0745397,1998,20~30년
자양동 642,광진구,자양동,자양현대5,30,37.5282909,127.0788975,1998,20~30년
자양동 786,광진구,자양동,자양현대6,12,37.5330101,127.0713515,1999,10~20년
자양동 831-1,광진구,자양동,한강성원,14,37.533265,127.0659682,1997,20~30년
자양동 670,광진구,자양동,현대3,27,37.528363,127.0835353,1996,20~30년
중곡동 681,광진구,중곡동,성원,11,37.5711024,127.0796089,1998,20~30년
중곡동 231-1,광진구,중곡동,신성그랜드타워,1,37.5650004,127.0803994,1996,20~30년
중곡동 292,광진구,중곡동,에스케이,22,37.5688959,127.0864699,1999,10~20년
중곡동 191-77,광진구,중곡동,중곡1단지,10,37.5663096,127.0788868,1976,30년이상
중곡동 190-26,광진구,중곡동,중곡2단지,19,37.5666337,127.0783961,1976,30년이상
화양동 113-1,광진구,화양동,광진코지웰,24,37.5470521,127.071819,2014,10년미만
화양동 234,광진구,화양동,화양현대,18,37.5443496,127.0657292,1999,10~20년
개봉동 492,구로구,개봉동,개봉푸르지오,98,37.4888722,126.8557494,2014,10년미만
개봉동 60-101,구로구,개봉동,거성푸르뫼1,23,37.5009294,126.8436121,1993,20~30년
개봉동 312-38,구로구,개봉동,길훈,16,37.4835928,126.8511157,1999,10~20년
개봉동 477,구로구,개봉동,대상,13,37.4822492,126.8498033,1999,10~20년
개봉동 335-1,구로구,개봉동,동인,10,37.4937079,126.8488948,1989,20~30년
개봉동 199-4,구로구,개봉동,림괄,11,37.4938988,126.8595738,1988,30년이상
개봉동 470,구로구,개봉동,삼환,73,37.4947309,126.8543072,1995,20~30년
개봉동 473,구로구,개봉동,상우,14,37.493709,126.8607222,1997,20~30년
개봉동 318-1,구로구,개봉동,신양지(나동),3,37.4935508,126.8511849,2004,10~20년
개봉동 475,구로구,개봉동,영화,25,37.4959779,126.8598938,1998,20~30년
개봉동 488,구로구,개봉동,영화 아이닉스,14,37.4826168,126.8491577,2005,10~20년
개봉동 483,구로구,개봉동,율포그레이스빌,3,37.4948684,126.8556689,2002,10~20년
개봉동 175-8,구로구,개봉동,청실,4,37.4954995,126.8594363,1987,30년이상
개봉동 476,구로구,개봉동,한마을,138,37.4952998,126.8625447,1999,10~20년
개봉동 481,구로구,개봉동,현대,144,37.4919831,126.8585354,1987,30년이상
개봉동 480,구로구,개봉동,현대홈타운,80,37.4915783,126.8615947,2004,10~20년
고척동 339,구로구,고척동,고척파크푸르지오,55,37.5075955,126.8580851,2009,10년미만
고척동 296,구로구,고척동,대우,73,37.5029114,126.8556072,2000,10~20년
고척동 334,구로구,고척동,벽산,61,37.4956577,126.8644437,1999,10~20년
고척동 97-3,구로구,고척동,삼명,18,37.4993368,126.8559626,1977,30년이상
고척동 141-1,구로구,고척동,서울가든,45,37.502725,126.8605614,1989,20~30년
고척동 76-55,구로구,고척동,"우성,현대아파트",25,37.498705,126.8628448,1987,30년이상
고척동 326,구로구,고척동,청구,34,37.5014697,126.8638173,1999,10~20년
고척동 329,구로구,고척동,청솔우성,10,37.5062069,126.8598491,2000,10~20년
구로동 718-16,구로구,구로동,(718-16)경원주택,1,37.4876649,126.8832843,2000,10~20년
구로동 739-43,구로구,구로동,(739-43),1,37.4885349,126.8859139,1971,30년이상
구로동 742-58,구로구,구로동,(742-58),3,37.4891076,126.8875054,1998,20~30년
구로동 743-14,구로구,구로동,(743-14),1,37.4883417,126.8871165,1997,20~30년
구로동 744-5,구로구,구로동,(744-5),1,37.4878967,126.886837,1996,20~30년
구로동 745-43,구로구,구로동,(745-43),2,37.4871271,126.8863532,1996,20~30년
구로동 780-58,구로구,구로동,(780-58),5,37.4870337,126.8887789,1997,20~30년
구로동 796-3,구로구,구로동,(796-3),3,37.4854009,126.8892407,1996,20~30년
구로동 798-24,구로구,구로동,(798-24),2,37.4850621,126.8878108,1998,20~30년
구로동 806-46,구로구,구로동,(806-46)돌담,1,37.4858644,126.8862238,1998,20~30년
구로동 97-5,구로구,구로동,SR친오애,6,37.4965817,126.8921929,2009,10년미만
구로동 1265,구로구,구로동,구로두산,159,37.4892609,126.8892355,1998,20~30년
구로동 1278,구로구,구로동,구로두산위브,66,37.4859507,126.8902253,2006,10~20년
구로동 1256,구로구,구로동,구로현대,35,37.4883204,126.8960849,1992,20~30년
구로동 1259,구로구,구로동,구일우성,60,37.4901992,126.8768791,1998,20~30년
구로동 43-4,구로구,구로동,다솜금호,18,37.5025146,126.8919571,1995,20~30년
구로동 1286,구로구,구로동,다울숲,6,37.4922791,126.8885395,2010,10년미만
구로동 106-2,구로구,구로동,대림역포스큐,9,37.4981598,126.8919457,2015,10년미만
구로동 106,구로구,구로동,동도아르떼빌,4,37.4984014,126.8912851,2003,10~20년
구로동 1257,구로구,구로동,럭키,31,37.4918818,126.8940162,1992,20~30년
구로동 97,구로구,구로동,로제리움2차,7,37.4960439,126.890958,2014,10년미만
구로동 1263,구로구,구로동,롯데,60,37.5032924,126.8841316,1999,10~20년
구로동 440,구로구,구로동,보광,16,37.4952178,126.885809,1984,30년이상
구로동 104-8,구로구,구로동,비즈트위트 레드,14,37.497077,126.8916869,2016,10년미만
구로동 44-8,구로구,구로동,비즈트위트Orange,6,37.5021707,126.8913141,2013,10년미만
구로동 98-10,구로구,구로동,비즈트위트그린,6,37.4953177,126.8904859,2012,10년미만
구로동 107-4,구로구,구로동,비즈트위트블루,8,37.4986207,126.8911348,2012,10년미만
구로동 256-1,구로구,구로동,삼성래미안,97,37.4876957,126.8918232,2004,10~20년
구로동 108-2,구로구,구로동,새솔금호,16,37.4999834,126.8904994,1996,20~30년
구로동 104-9,구로구,구로동,성호메이플라워멤버스빌,16,37.4968668,126.8913745,2002,10~20년
구로동 106-10,구로구,구로동,순영웰라이빌1,11,37.498139,126.8915592,2003,10~20년
구로동 501,구로구,구로동,신구로자이,45,37.5000786,126.8840596,2007,10~20년
구로동 42,구로구,구로동,신도림LG자이,18,37.5035444,126.8921353,2004,10~20년
구로동 1267,구로구,구로동,신도림태영타운,124,37.506086,126.888665,2000,10~20년
구로동 560,구로구,구로동,신도림현대,38,37.504698,126.8857552,1994,20~30년
구로동 1274,구로구,구로동,신성미소지움,18,37.4792779,126.8966001,2003,10~20년
구로동 100-8,구로구,구로동,신안타워,6,37.4957811,126.8887906,1998,20~30년
구로동 46,구로구,구로동,쌍용플래티넘노블,12,37.5009008,126.8914709,2006,10~20년
구로동 642-46,구로구,구로동,우방,13,37.4974953,126.8748371,1999,10~20년
구로동 1058,구로구,구로동,우성(1058),26,37.4946762,126.8724118,1995,20~30년
구로동 1262,구로구,구로동,월드,10,37.5054776,126.8758845,1998,20~30년
구로동 1260,구로구,구로동,이화우성,32,37.4897123,126.8937531,1998,20~30년
구로동 446-54,구로구,구로동,일동행복세상,1,37.4945622,126.8846992,2008,10~20년
구로동 685-222,구로구,구로동,주공1,91,37.4929745,126.8752803,1986,30년이상
구로동 110-8,구로구,구로동,하나세인스톤1차,10,37.5012363,126.8890129,2011,10년미만
구로동 97-4,구로구,구로동,하나세인스톤2차,15,37.4964175,126.8918855,2011,10년미만
구로동 46-4,구로구,구로동,하나세인스톤3차,7,37.500518,126.8919674,2011,10년미만
구로동 642-9,구로구,구로동,한신,50,37.4963276,126.8738085,1991,20~30년
구로동 1280,구로구,구로동,한신휴플러스(1280-0),51,37.4885326,126.8906507,2007,10~20년
구로동 685-70,구로구,구로동,현대연예인,58,37.4928559,126.8770213,1989,20~30년
구로동 642-33,구로구,구로동,현대의보조합,4,37.498215,126.8761427,1994,20~30년
궁동 184-20,구로구,궁동,대명하이빌101동,2,37.497035,126.8316033,2009,10년미만
궁동 290,구로구,궁동,우남푸르미아,7,37.4934722,126.8296753,2007,10~20년
신도림동 642,구로구,신도림동,대림1,191,37.5057794,126.880714,1999,10~20년
신도림동 691,구로구,신도림동,대림3,13,37.5070694,126.8781216,2001,10~20년
신도림동 646,구로구,신도림동,대림e-편한세상4,66,37.5106069,126.8868867,2003,10~20년
신도림동 647,구로구,신도림동,대림e-편한세상5,26,37.5070328,126.8807235,2003,10~20년
신도림동 643,구로구,신도림동,동아1,73,37.5110546,126.8827673,1999,10~20년
신도림동 644,구로구,신도림동,동아2,57,37.5085288,126.8857118,2000,10~20년
신도림동 645,구로구,신도림동,동아3,60,37.5095183,126.884195,2000,10~20년
신도림동 692,구로구,신도림동,디큐브시티,51,37.5084321,126.8887332,2011,10년미만
신도림동 290,구로구,신도림동,미성,64,37.5072702,126.8764944,1987,30년이상
신도림동 338,구로구,신도림동,신도림대우푸르지오2차,7,37.5104893,126.8894187,2008,10~20년
신도림동 637,구로구,신도림동,신도림우성3,17,37.5128988,126.8842669,1993,20~30년
신도림동 412-3,구로구,신도림동,신도림팰러티움,12,37.503866,126.8818079,2006,10~20년
신도림동 312-17,구로구,신도림동,우성1,7,37.5113744,126.8857227,1988,30년이상
신도림동 639,구로구,신도림동,우성2,10,37.5121172,126.8854718,1989,20~30년
신도림동 641,구로구,신도림동,현대,22,37.5119989,126.8840088,1987,30년이상
오류동 344,구로구,오류동,경남아너스빌,19,37.4904484,126.8397345,2008,10~20년
오류동 335,구로구,오류동,금강,15,37.4932384,126.8477836,1996,20~30년
오류동 343,구로구,오류동,금강(343),50,37.4882212,126.8323456,2003,10~20년
오류동 150-42,구로구,오류동,길훈,14,37.4906392,126.8437538,1999,10~20년
오류동 339,구로구,오류동,동부(339),19,37.4970649,126.8487754,1999,10~20년
오류동 338,구로구,오류동,동부골든,59,37.4992555,126.8395869,1998,20~30년
오류동 345,구로구,오류동,동선,19,37.4936096,126.8394956,2004,10~20년
오류동 340,구로구,오류동,삼천리,37,37.4924955,126.8393636,1998,20~30년
오류동 351,구로구,오류동,서해그랑블,9,37.486921,126.8294281,2009,10년미만
오류동 342,구로구,오류동,영풍마드레빌,38,37.4915754,126.8388023,2002,10~20년
오류동 347,구로구,오류동,오류동금호어울림,9,37.498314,126.8391356,2006,10~20년
오류동 346,구로구,오류동,오류동푸르지오,16,37.4915303,126.8415485,2004,10~20년
오류동 348,구로구,오류동,우림필유,14,37.4939258,126.8468548,2005,10~20년
오류동 341,구로구,오류동,한신플러스타운,21,37.4983138,126.8409518,2002,10~20년
온수동 154,구로구,온수동,리치안풍산,6,37.4956507,126.8175343,2009,10년미만
온수동 155,구로구,온수동,온수힐스테이트,78,37.4967367,126.8209912,2010,10년미만
천왕동 280,구로구,천왕동,천왕연지타운1단지,24,37.4803813,126.8415075,2013,10년미만
천왕동 281,구로구,천왕동,천왕연지타운2단지,40,37.4803813,126.8415075,2014,10년미만
가산동 141-2,금천구,가산동,가산양우내안에애플,6,37.4788469,126.8911851,2013,10년미만
가산동 769,금천구,가산동,두산,68,37.4760163,126.8917131,2000,10~20년
독산동 332-14,금천구,독산동,계룡,15,37.4669099,126.8927247,1998,20~30년
독산동 711-2,금천구,독산동,금천현대,86,37.4625204,126.8902608,2002,10~20년
독산동 1140,금천구,독산동,독산동중앙하이츠빌,35,37.464677,126.8887707,2004,10~20년
독산동 1088,금천구,독산동,독산주공14단지,71,37.4602258,126.886663,1990,20~30년
독산동 184-4,금천구,독산동,동심,5,37.4691307,126.9048751,2003,10~20년
독산동 1006-132,금천구,독산동,삼환,4,37.4657897,126.8921275,1995,20~30년
독산동 958,금천구,독산동,을미월드힐,4,37.4784694,126.9014137,2006,10~20년
독산동 1143,금천구,독산동,이랜드해가든,15,37.4608384,126.8930743,2008,10~20년
독산동 1133,금천구,독산동,진도2차,14,37.4700382,126.8920399,1997,20~30년
독산동 1136,금천구,독산동,진도3차,21,37.4682555,126.8931435,1999,10~20년
독산동 1139,금천구,독산동,청광플러스원,8,37.4710509,126.8941446,2003,10~20년
독산동 1003-21,금천구,독산동,태영,10,37.4662048,126.890463,1999,10~20년
독산동 1093-4,금천구,독산동,한신,53,37.4564805,126.8880443,1991,20~30년
독산동 1069,금천구,독산동,호정타워,6,37.4611096,126.9002186,1993,20~30년
시흥동 791-40,금천구,시흥동,SM엘루이,6,37.4461395,126.902437,2012,10년미만
시흥동 1013,금천구,시흥동,관악산벽산타운5,200,37.4482342,126.9186298,2004,10~20년
시흥동 1017,금천구,시흥동,관악산신도브래뉴,11,37.4480716,126.9107448,2006,10~20년
시흥동 384-12,금천구,시흥동,남서울건영2,49,37.4493702,126.910466,1989,20~30년
시흥동 1026,금천구,시흥동,남서울힐스테이트,108,37.4492857,126.9104662,2011,10년미만
시흥동 1002-1,금천구,시흥동,럭키남서울,82,37.4487403,126.8991848,1981,30년이상
시흥동 109-1,금천구,시흥동,무지개,85,37.456119,126.8983126,1980,30년이상
시흥동 1010,금천구,시흥동,벽산,127,37.451862,126.918954,1999,10~20년
시흥동 1006,금천구,시흥동,벽산3,20,37.4529815,126.9176177,1998,20~30년
시흥동 5-13,금천구,시흥동,삼익,46,37.4632563,126.909601,1983,30년이상
시흥동 817-29,금천구,시흥동,시흥(817-29),4,37.4558939,126.9077424,1975,30년이상
시흥동 806,금천구,시흥동,시흥동 월드메르디앙,17,37.4595534,126.9071059,2006,10~20년
시흥동 1009,금천구,시흥동,시흥목련,9,37.4545438,126.8976214,1996,20~30년
시흥동 1015,금천구,시흥동,시흥베르빌,16,37.4575869,126.8976513,2004,10~20년
공릉동 738,노원구,공릉동,공릉우성아파트,25,37.6285981,127.0726411,1995,20~30년
공릉동 740,노원구,공릉동,대아아파트1차,4,37.6238783,127.0789484,1997,20~30년
공릉동 705,노원구,공릉동,동부아파트,22,37.6280519,127.0782557,1996,20~30년
공릉동 745,노원구,공릉동,동신아파트,36,37.628077,127.0768608,1999,10~20년
공릉동 747,노원구,공릉동,두산힐스빌아파트,26,37.6210119,127.0799557,2000,10~20년
공릉동 109,노원구,공릉동,비선아파트,52,37.6256517,127.087321,1999,10~20년
공릉동 754,노원구,공릉동,삼익2차아파트,18,37.6258436,127.0803516,2004,10~20년
공릉동 714,노원구,공릉동,삼익4단지아파트,38,37.6298477,127.0719356,1994,20~30년
공릉동 707,노원구,공릉동,시영2단지(라이프)아파트,69,37.6305457,127.0665319,1994,20~30년
공릉동 715,노원구,공릉동,시영3차(라이프)아파트,84,37.6272665,127.0685419,1994,20~30년
공릉동 748,노원구,공릉동,신도1차아파트,23,37.6276091,127.0699367,2002,10~20년
공릉동 389-13,노원구,공릉동,임성아파트,2,37.6272472,127.0757189,1997,20~30년
공릉동 90,노원구,공릉동,청솔아파트9,23,37.6213463,127.0849529,2000,10~20년
공릉동 81,노원구,공릉동,태강아파트,209,37.6233407,127.0830434,1999,10~20년
공릉동 725,노원구,공릉동,풍림아파트A,90,37.6290499,127.0667534,2001,10~20년
공릉동 727,노원구,공릉동,풍림아파트B,15,37.6282818,127.0690945,2001,10~20년
공릉동 222,노원구,공릉동,하늘공원,1,37.6252315,127.0803115,2006,10~20년
공릉동 683-14,노원구,공릉동,한일휴니스빌,13,37.6175347,127.0741865,2013,10년미만
공릉동 111,노원구,공릉동,화랑타운아파트,30,37.6234019,127.0884994,2000,10~20년
공릉동 742,노원구,공릉동,효성아파트,19,37.6211531,127.0882845,1995,20~30년
공릉동 106,노원구,공릉동,효성화운트빌아파트,43,37.6276618,127.0867254,2000,10~20년
상계동 95-274,노원구,상계동,공감대,7,37.6643149,127.0775808,2005,10~20년
상계동 1128,노원구,상계동,극동늘푸른,8,37.677394,127.0571539,2000,10~20년
상계동 1270,노원구,상계동,금호타운,11,37.6670958,127.0687856,1999,10~20년
상계동 359,노원구,상계동,노원현대,10,37.6586789,127.0632818,1997,20~30년
상계동 1021-12,노원구,상계동,대동황토빌라트,5,37.6713047,127.0577002,1999,10~20년
상계동 695,노원구,상계동,대림,24,37.6596804,127.0575729,1995,20~30년
상계동 1285,노원구,상계동,동아불암,44,37.6669249,127.0797349,1999,10~20년
상계동 1305,노원구,상계동,동양엔파트,25,37.6575352,127.0639274,2003,10~20년
상계동 1065-6,노원구,상계동,동일씨티빌,2,37.672441,127.0522016,2006,10~20년
상계동 1110,노원구,상계동,두산,45,37.6773709,127.0531456,2000,10~20년
상계동 766-1,노원구,상계동,미도,34,37.6461282,127.0608649,1988,30년이상
상계동 1320,노원구,상계동,미라보(성림),11,37.6748028,127.0730618,2006,10~20년
상계동 1265,노원구,상계동,미주동방벽운,27,37.6815142,127.0565768,2000,10~20년
상계동 173-1,노원구,상계동,벽산,142,37.6612726,127.0726949,1999,10~20년
상계동 639,노원구,상계동,보람1단지,214,37.6662467,127.0649923,1988,30년이상
상계동 1273,노원구,상계동,북부현대,6,37.6741688,127.0503648,1996,20~30년
상계동 1293,노원구,상계동,불암현대,50,37.6677865,127.0812704,1999,10~20년
상계동 1279,노원구,상계동,상계1차중앙하이츠,23,37.653315,127.0687266,1997,20~30년
상계동 1282,노원구,상계동,상계2차중앙하이츠,42,37.655007,127.0682555,1998,20~30년
상계동 172,노원구,상계동,상계대림,53,37.6628609,127.0743923,1989,20~30년
상계동 463,노원구,상계동,상계신동아,29,37.6671334,127.0672799,1995,20~30년
상계동 765,노원구,상계동,상계주공1(고층),146,37.647927,127.0606824,1988,30년이상
상계동 666,노원구,상계동,상계주공10(고층),150,37.6629991,127.05545,1988,30년이상
상계동 652,노원구,상계동,상계주공11(고층),120,37.665688,127.0557151,1988,30년이상
상계동 647,노원구,상계동,상계주공12(고층),119,37.6660832,127.0592794,1988,30년이상
상계동 637,노원구,상계동,상계주공13(고층),89,37.6676435,127.0620719,1989,20~30년
상계동 626,노원구,상계동,상계주공14(고층),186,37.669162,127.0585888,1989,20~30년
상계동 624,노원구,상계동,상계주공16(고층),148,37.6686255,127.0533712,1988,30년이상
상계동 740,노원구,상계동,상계주공2(고층),151,37.6498073,127.0587425,1987,30년이상
상계동 730-2,노원구,상계동,상계주공3(고층),136,37.6523009,127.0606024,1987,30년이상
상계동 749-5,노원구,상계동,상계주공4(고층),131,37.6500476,127.0622139,1988,30년이상
상계동 721,노원구,상계동,상계주공5(저층),116,37.6527189,127.0645625,1987,30년이상
상계동 720,노원구,상계동,상계주공6(고층),185,37.653688,127.064743,1988,30년이상
상계동 691,노원구,상계동,상계주공7(고층),159,37.6601098,127.0623752,1988,30년이상
상계동 677,노원구,상계동,상계주공8(저층),129,37.6614669,127.0625157,1988,30년이상
상계동 670,노원구,상계동,상계주공9(고층),212,37.6628519,127.0602666,1988,30년이상
상계동 330-29,노원구,상계동,소담빌,20,37.6564206,127.0663021,2014,10년미만
상계동 1312,노원구,상계동,수락리버시티3단지,20,37.6876147,127.0542784,2009,10년미만
상계동 1313,노원구,상계동,수락리버시티4단지,29,37.6859148,127.0535291,2009,10년미만
상계동 1269,노원구,상계동,수락파크빌,31,37.6792495,127.0568526,2001,10~20년
상계동 1298,노원구,상계동,신이모닝빌,1,37.6533833,127.0698477,2002,10~20년
상계동 1299,노원구,상계동,양우,17,37.6562167,127.070949,2002,10~20년
상계동 1307,노원구,상계동,우림루미아트2,1,37.6744938,127.0571838,2004,10~20년
상계동 1255,노원구,상계동,은빛1단지,130,37.6814892,127.0537826,1998,20~30년
상계동 1256,노원구,상계동,은빛2단지,103,37.6799133,127.0534466,1998,20~30년
상계동 694,노원구,상계동,임광,23,37.6606791,127.057048,2000,10~20년
상계동 1276,노원구,상계동,청암2단지,63,37.6630759,127.0786003,2001,10~20년
상계동 1281,노원구,상계동,코오롱,16,37.6527573,127.0697648,1997,20~30년
상계동 135,노원구,상계동,한신1차,31,37.6659209,127.0687958,1987,30년이상
상계동 451,노원구,상계동,한신2차,35,37.6647538,127.0680815,1988,30년이상
상계동 458,노원구,상계동,한신3차,25,37.6662587,127.0674235,1990,20~30년
상계동 995,노원구,상계동,한신4차,20,37.6728031,127.0590483,1995,20~30년
상계동 757,노원구,상계동,한양,19,37.6515825,127.0672761,1986,30년이상
상계동 1309,노원구,상계동,한일유앤아이,20,37.6541806,127.0710889,2005,10~20년
월계동 949,노원구,월계동,꿈의숲 SK VIEW,53,37.6277451,127.0568215,2016,10년미만
월계동 925,노원구,월계동,대동,12,37.6218076,127.0603111,1997,20~30년
월계동 436,노원구,월계동,동신,60,37.6170175,127.0611858,1983,30년이상
월계동 940,노원구,월계동,동원베네스트,15,37.6318189,127.0584822,2005,10~20년
월계동 947,노원구,월계동,롯데캐슬루나,66,37.6265367,127.0496774,2006,10~20년
월계동 13,노원구,월계동,미륭,353,37.6244076,127.0655937,1986,30년이상
월계동 320-11,노원구,월계동,사슴3,77,37.6316963,127.0598354,1995,20~30년
월계동 380-1,노원구,월계동,삼능스페이스향,7,37.6240119,127.0606867,2006,10~20년
월계동 12,노원구,월계동,삼호4,73,37.6264682,127.0643353,1987,30년이상
월계동 941,노원구,월계동,성북역신도브래뉴,9,37.6230565,127.0588488,2005,10~20년
월계동 322-1,노원구,월계동,성원(사슴4),57,37.6292875,127.0626221,1995,20~30년
월계동 930,노원구,월계동,우남그랜드,10,37.6157119,127.06732,2001,10~20년
월계동 946,노원구,월계동,우남푸르미아,4,37.6325778,127.056933,2007,10~20년
월계동 942,노원구,월계동,월계역신도브래뉴,30,37.6290993,127.0586774,2005,10~20년
월계동 939,노원구,월계동,월계흥화브라운빌,17,37.6315746,127.0440142,2004,10~20년
월계동 556,노원구,월계동,주공2,167,37.6281642,127.0527347,1992,20~30년
월계동 780,노원구,월계동,청백3,30,37.6317158,127.0501179,1998,20~30년
월계동 781,노원구,월계동,청백4,34,37.631655,127.0516345,1998,20~30년
월계동 923,노원구,월계동,초안1,31,37.6328544,127.0442811,1998,20~30년
월계동 924,노원구,월계동,초안2,40,37.631264,127.0429374,1997,20~30년
월계동 926,노원구,월계동,한일1,10,37.6218998,127.0613646,1999,10~20년
월계동 927,노원구,월계동,한일2,10,37.6211569,127.0619845,2000,10~20년
월계동 18,노원구,월계동,한진한화그랑빌,266,37.6176466,127.0685939,2002,10~20년
월계동 929,노원구,월계동,현대,97,37.6184726,127.0626469,1987,30년이상
중계동 505,노원구,중계동,경남,125,37.6387354,127.0624762,1989,20~30년
중계동 597,노원구,중계동,경남아너스빌,13,37.6621585,127.0768549,2008,10~20년
중계동 583,노원구,중계동,금호타운(583),41,37.6469949,127.0813419,1997,20~30년
중계동 363,노원구,중계동,대림벽산(363),53,37.6472483,127.0778939,1993,20~30년
중계동 601,노원구,중계동,동도센트리움(601),6,37.6580956,127.0732796,2005,10~20년
중계동 103,노원구,중계동,동진,21,37.6521505,127.0818994,1988,30년이상
중계동 366,노원구,중계동,라이프,87,37.6519337,127.0795233,1993,20~30년
중계동 361-1,노원구,중계동,롯데우성아파트,60,37.6468513,127.0727677,1993,20~30년
중계동 602,노원구,중계동,비콘드림힐(602),10,37.6585221,127.0759524,2005,10~20년
중계동 593,노원구,중계동,삼성,50,37.6488695,127.0831376,1997,20~30년
중계동 584-1,노원구,중계동,삼창타워주상프라자,10,37.6590511,127.0728631,1997,20~30년
중계동 580,노원구,중계동,성원1,45,37.6502096,127.0700425,1996,20~30년
중계동 590,노원구,중계동,신안,28,37.6514232,127.0720887,1999,10~20년
중계동 364,노원구,중계동,신안동진,50,37.649657,127.0782777,1993,20~30년
중계동 587,노원구,중계동,양지마을(대림)1,50,37.6510805,127.0704475,1998,20~30년
중계동 588,노원구,중계동,양지마을(대림)2,74,37.65314,127.0721422,1999,10~20년
중계동 445,노원구,중계동,염광,59,37.6563584,127.0730439,1996,20~30년
중계동 369,노원구,중계동,주공2,173,37.6574623,127.0786935,1992,20~30년
중계동 358-2,노원구,중계동,주공4,76,37.6554721,127.0769966,1991,20~30년
중계동 359-1,노원구,중계동,주공5,247,37.6527131,127.0756028,1983,30년이상
중계동 364-12,노원구,중계동,주공6,69,37.6484769,127.0784226,1983,30년이상
중계동 363-1,노원구,중계동,주공7,72,37.6470671,127.0797284,1993,20~30년
중계동 362-1,노원구,중계동,주공8,79,37.6462151,127.0751689,1993,20~30년
중계동 585,노원구,중계동,중계3우성,17,37.6524558,127.0729009,1999,10~20년
중계동 502-1,노원구,중계동,중계그린1단지,251,37.644231,127.0634009,1990,20~30년
중계동 512,노원구,중계동,중계무지개,214,37.6428027,127.0664601,1991,20~30년
중계동 599,노원구,중계동,중계스타클래스,5,37.6587894,127.0771844,2005,10~20년
중계동 435-1,노원구,중계동,중계현대2,23,37.6559211,127.0740319,1991,20~30년
중계동 161-1,노원구,중계동,중앙하이츠1,43,37.6598466,127.0765242,1998,20~30년
중계동 78,노원구,중계동,진로유통조합대림,20,37.6489933,127.0816753,1992,20~30년
중계동 360-2,노원구,중계동,청구3,104,37.6496758,127.0745809,1996,20~30년
중계동 582,노원구,중계동,청암3단지(582),11,37.6602947,127.0789894,2003,10~20년
중계동 598,노원구,중계동,한화꿈에그린,44,37.6474129,127.0833005,2005,10~20년
중계동 576,노원구,중계동,현대(3차),16,37.6504243,127.0816951,1992,20~30년
중계동 578,노원구,중계동,현대2(4차),11,37.6479339,127.0844885,1993,20~30년
하계동 280,노원구,하계동,미성,46,37.6347792,127.069563,1987,30년이상
하계동 271-3,노원구,하계동,벽산,148,37.6354318,127.0644563,1999,10~20년
하계동 353,노원구,하계동,우방,22,37.6375943,127.0771679,1999,10~20년
하계동 273,노원구,하계동,장미(시영6),156,37.6336102,127.0678022,1989,20~30년
하계동 284,노원구,하계동,청구,132,37.6378958,127.0686347,1999,10~20년
하계동 274,노원구,하계동,청솔(시영7),143,37.6323983,127.0711142,1989,20~30년
하계동 251,노원구,하계동,하계1청구,41,37.6392243,127.0715448,1997,20~30년
하계동 288,노원구,하계동,하계2현대,71,37.6445702,127.0718964,1997,20~30년
하계동 354,노원구,하계동,학여울청구,90,37.6362848,127.0613593,1999,10~20년
하계동 256-5,노원구,하계동,한신동성,37,37.6404299,127.0753313,1993,20~30년
도봉동 647,도봉구,도봉동,도봉파크빌2,15,37.6841853,127.0506781,2002,10~20년
도봉동 644,도봉구,도봉동,도봉파크빌3,13,37.6876359,127.0485117,2002,10~20년
도봉동 595,도봉구,도봉동,럭키,30,37.6794041,127.0444982,1992,20~30년
도봉동 87,도봉구,도봉동,삼환도봉,39,37.6809076,127.0486883,1987,30년이상
도봉동 641,도봉구,도봉동,서원,152,37.6713606,127.047272,1996,20~30년
도봉동 51-12,도봉구,도봉동,중흥에스-클래스,8,37.6848884,127.0471375,2004,10~20년
도봉동 30-1,도봉구,도봉동,한신,202,37.6857879,127.0479503,1991,20~30년
도봉동 657,도봉구,도봉동,한양수자인,12,37.6744994,127.0476796,2010,10년미만
방학동 720-1,도봉구,방학동,대상타운현대아파트,81,37.664974,127.048155,2001,10~20년
방학동 444-31,도봉구,방학동,대원그린아파트,17,37.6626224,127.0281621,1987,30년이상
방학동 740,도봉구,방학동,동양크레오아파트,13,37.6644054,127.0302278,2004,10~20년
방학동 718-7,도봉구,방학동,방학E.S.A1아파트,25,37.668562,127.0454839,2003,10~20년
방학동 720-18,도봉구,방학동,방학동삼성래미안1,38,37.6668979,127.0473902,2002,10~20년
방학동 715-12,도봉구,방학동,방학동삼성래미안2,18,37.6650641,127.0458053,2002,10~20년
방학동 275,도봉구,방학동,벽산아파트1,30,37.6602984,127.0321807,1991,20~30년
방학동 713,도봉구,방학동,브라운스톤방학아파트,6,37.6634767,127.0450526,2003,10~20년
방학동 274,도봉구,방학동,삼익세라믹아파트,32,37.6611831,127.0339317,1988,30년이상
방학동 271-1,도봉구,방학동,신동아아파트1,234,37.6609614,127.0265811,1986,30년이상
방학동 531,도봉구,방학동,신동아아파트2,34,37.6591068,127.0234943,1992,20~30년
방학동 732,도봉구,방학동,신동아아파트4,32,37.6626197,127.0299133,1995,20~30년
방학동 738,도봉구,방학동,신동아아파트5,12,37.6633879,127.0286599,1998,20~30년
방학동 736,도봉구,방학동,신동아타워아파트,9,37.6621699,127.0287936,1997,20~30년
방학동 507,도봉구,방학동,우성아파트1,30,37.6578986,127.023934,1992,20~30년
방학동 508,도봉구,방학동,우성아파트2,35,37.6568265,127.0219908,1993,20~30년
방학동 734,도봉구,방학동,청구아파트,58,37.6575265,127.0260117,1994,20~30년
방학동 712-5,도봉구,방학동,태솔에버빌,2,37.6624987,127.0461181,2008,10~20년
방학동 705-17,도봉구,방학동,퍼스티안,13,37.6674352,127.043873,2013,10년미만
쌍문동 73,도봉구,쌍문동,경남,29,37.6548448,127.0349748,1989,20~30년
쌍문동 721,도봉구,쌍문동,극동,16,37.6512992,127.0272796,1992,20~30년
쌍문동 199-1,도봉구,쌍문동,금호1,57,37.6589994,127.033425,1990,20~30년
쌍문동 산69-1,도봉구,쌍문동,금호2,16,37.6571287,127.0292322,1991,20~30년
쌍문동 153,도봉구,쌍문동,기용,10,37.6545947,127.0344738,1988,30년이상
쌍문동 285-5,도봉구,쌍문동,동익미라벨,24,37.6513004,127.0247059,1987,30년이상
쌍문동 732,도봉구,쌍문동,북한산 코오롱 하늘채,16,37.6522545,127.0304855,2014,10년미만
쌍문동 728,도봉구,쌍문동,북한산월드메르디앙,11,37.6537818,127.0136444,2005,10~20년
쌍문동 729,도봉구,쌍문동,브라운스톤쌍문,16,37.6472808,127.0293876,2006,10~20년
쌍문동 56,도봉구,쌍문동,삼익세라믹,113,37.6572028,127.0351948,1988,30년이상
쌍문동 256,도봉구,쌍문동,신원에벤에셀,2,37.6573275,127.0282084,1995,20~30년
쌍문동 725,도봉구,쌍문동,쌍문동삼성래미안,22,37.6467678,127.027929,2002,10~20년
쌍문동 195,도봉구,쌍문동,청구,14,37.6595556,127.0344458,1999,10~20년
쌍문동 388-33,도봉구,쌍문동,한양1,45,37.6457729,127.030316,1986,30년이상
쌍문동 59,도봉구,쌍문동,한양2,143,37.6570975,127.0311388,1988,30년이상
쌍문동 59-3,도봉구,쌍문동,한양5,25,37.6559354,127.0319325,1991,20~30년
쌍문동 59-5,도봉구,쌍문동,한양6,36,37.6557483,127.0292388,2002,10~20년
쌍문동 54,도봉구,쌍문동,현대1,46,37.6585281,127.0312211,1994,20~30년
쌍문동 719,도봉구,쌍문동,현대3,17,37.6518064,127.0216044,1996,20~30년
창동 635-42,도봉구,창동,LIG건영캐스빌,15,37.6412989,127.0339955,2002,10~20년
창동 629-24,도봉구,창동,금강101,2,37.6441812,127.0357508,2002,10~20년
창동 811,도봉구,창동,대동,13,37.6616531,127.0441715,1997,20~30년
창동 804,도봉구,창동,대우,56,37.6423565,127.0375024,2000,10~20년
창동 814,도봉구,창동,대우그린,31,37.6463093,127.0497224,2000,10~20년
창동 805,도봉구,창동,동아그린,32,37.6544747,127.0464077,1996,20~30년
창동 808,도봉구,창동,동아청솔,147,37.6571794,127.0483916,1997,20~30년
창동 715-3,도봉구,창동,미소애,18,37.6558021,127.0402108,2005,10~20년
창동 825,도봉구,창동,북한산아이파크5차,136,37.6578429,127.0435358,2004,10~20년
창동 45,도봉구,창동,삼성래미안,111,37.6488798,127.0484783,2004,10~20년
창동 299,도봉구,창동,상아1차아파트,46,37.6540362,127.042448,1987,30년이상
창동 810,도봉구,창동,신창,49,37.6408568,127.0418875,1998,20~30년
창동 807,도봉구,창동,쌍용,78,37.6597623,127.048132,1995,20~30년
창동 38,도봉구,창동,주공17단지,202,37.6439505,127.0533207,1989,20~30년
창동 27,도봉구,창동,주공19단지(창동 리버타운),137,37.649242,127.0509338,1988,30년이상
창동 815,도봉구,창동,창동2차현대,55,37.6609417,127.046112,2001,10~20년
창동 820,도봉구,창동,창동신도브래뉴1차,39,37.6560862,127.0453524,2003,10~20년
창동 316,도봉구,창동,창동주공2단지,64,37.6527374,127.0420601,1990,20~30년
창동 347,도봉구,창동,창동주공3단지(해등마을),211,37.6500415,127.0436076,1990,20~30년
창동 373,도봉구,창동,창동주공4단지,110,37.6458199,127.0476912,1991,20~30년
창동 821,도봉구,창동,초안산신도브래뉴,10,37.6333523,127.0424529,2005,10~20년
창동 819,도봉구,창동,태영데시앙,37,37.6428627,127.0333996,2003,10~20년
창동 661-10,도봉구,창동,하우니티,4,37.6495977,127.036023,2008,10~20년
창동 813,도봉구,창동,현대조합,12,37.6558439,127.0406987,2000,10~20년
답십리동 111,동대문구,답십리동,답십리대우,26,37.5733744,127.0532333,2002,10~20년
답십리동 80,동대문구,답십리동,답십리청솔우성,84,37.57462,127.0600372,2000,10~20년
답십리동 994,동대문구,답십리동,답십리한화,8,37.566969,127.0539143,2001,10~20년
답십리동 808,동대문구,답십리동,대림,22,37.5708047,127.0637518,1995,20~30년
답십리동 10,동대문구,답십리동,동아,57,37.5692544,127.0617472,1992,20~30년
답십리동 990,동대문구,답십리동,두산,39,37.569807,127.060092,2000,10~20년
답십리동 998,동대문구,답십리동,두산위브,51,37.566146,127.0577111,2007,10~20년
답십리동 1003,동대문구,답십리동,래미안위브,254,37.5696589,127.0576058,2014,10년미만
답십리동 1000,동대문구,답십리동,삼성래미안,38,37.5758826,127.0655211,2004,10~20년
답십리동 997,동대문구,답십리동,세양청마루,16,37.5735475,127.0655684,2005,10~20년
답십리동 488-18,동대문구,답십리동,센시티16,12,37.5660769,127.0562744,2013,10년미만
답십리동 464-1,동대문구,답십리동,신답극동,16,37.5726286,127.0443132,1987,30년이상
답십리동 989-1,동대문구,답십리동,우성그린,37,37.5747696,127.0659493,1997,20~30년
답십리동 498-7,동대문구,답십리동,청계 지웰,15,37.5702006,127.049599,2012,10년미만
답십리동 999,동대문구,답십리동,청계벽산메가트리움,12,37.5697684,127.049643,2006,10~20년
답십리동 497-23,동대문구,답십리동,청계푸르지오시티,29,37.5691847,127.0505605,2015,10년미만
답십리동 1002,동대문구,답십리동,청계한신휴플러스,59,37.5723703,127.0459206,2010,10년미만
답십리동 494-1,동대문구,답십리동,한일노벨리아,5,37.5668543,127.0532151,2016,10년미만
답십리동 530-15,동대문구,답십리동,현대썬앤빌청계,20,37.5660527,127.0550522,2016,10년미만
용두동 138-41,동대문구,용두동,두산베어스타워,3,37.5784784,127.0324098,1998,20~30년
용두동 791,동대문구,용두동,두산위브,42,37.573435,127.0362211,2007,10~20년
용두동 790,동대문구,용두동,롯데캐슬피렌체,31,37.5769394,127.0357027,2009,10년미만
용두동 779,동대문구,용두동,신동아,65,37.5727927,127.0321687,1992,20~30년
용두동 792,동대문구,용두동,용두래미안,87,37.5752697,127.0360276,2011,10년미만
이문동 225,동대문구,이문동,대림e-편한세상,106,37.6044586,127.0650097,2003,10~20년
이문동 311,동대문구,이문동,래미안이문2차,34,37.5934908,127.0603061,2004,10~20년
이문동 329-1,동대문구,이문동,민족통일MJ캠퍼스외대,2,37.5953303,127.0592389,2016,10년미만
이문동 73,동대문구,이문동,삼익,16,37.5958514,127.0674581,1983,30년이상
이문동 64,동대문구,이문동,쌍용,103,37.5999747,127.0685006,1995,20~30년
이문동 292-10,동대문구,이문동,이문동웰츠타워,11,37.5984506,127.0618484,2008,10~20년
이문동 425,동대문구,이문동,이문삼성래미안아파트,31,37.6002882,127.0564698,2001,10~20년
이문동 254-40,동대문구,이문동,주성아우라,3,37.6042682,127.0617968,2013,10년미만
이문동 256-2,동대문구,이문동,투니온,5,37.6035002,127.0622108,2013,10년미만
이문동 54,동대문구,이문동,현대,46,37.6011689,127.0700281,1987,30년이상
장안동 319-6,동대문구,장안동,U-포그니,9,37.2849674,127.0112861,2016,10년미만
장안동 329-3,동대문구,장안동,래미안장안2차(329-3),174,37.5738691,127.0752911,2007,10~20년
장안동 342-3,동대문구,장안동,르메이에르장안타운6차,4,36.2116888,127.3365394,2005,10~20년
장안동 556,동대문구,장안동,방원예뜨랑,3,37.0647289,127.0842943,2002,10~20년
장안동 354-2,동대문구,장안동,삼성래미안1(354),47,37.5659237,127.0727621,2003,10~20년
장안동 577,동대문구,장안동,서광아침의빛,3,37.5643572,127.0724691,2008,10~20년
장안동 365-4,동대문구,장안동,서희스타힐스,16,37.0637298,127.0825702,2014,10년미만
장안동 567,동대문구,장안동,신일해피트리2차(567),4,37.5637125,127.0637342,2005,10~20년
장안동 415-1,동대문구,장안동,양지쉐르빌아파트(415-1),2,37.5625638,127.0613647,2016,10년미만
장안동 351-5,동대문구,장안동,에메랄드(351-5),8,37.5669516,127.0697632,2016,10년미만
장안동 568,동대문구,장안동,장안동신일해피트리,8,37.5648635,127.065026,2005,10~20년
장안동 580,동대문구,장안동,장안위더스빌,19,37.5661261,127.0619913,2011,10년미만
장안동 575,동대문구,장안동,장안평2차월드메르디앙,14,37.5632728,127.0712589,2007,10~20년
장안동 466-5,동대문구,장안동,장안푸르미에,12,37.5613296,127.0698218,2013,10년미만
장안동 336,동대문구,장안동,장안현대홈타운(336),150,37.5696393,127.0746744,2003,10~20년
장안동 329-2,동대문구,장안동,장안힐스테이트,109,37.5759638,127.0753716,2007,10~20년
장안동 573,동대문구,장안동,장한평월드메르디앙,12,37.563621,127.0706332,2006,10~20년
장안동 332-2,동대문구,장안동,정은101동(332-2),5,36.2133872,127.3348379,1999,10~20년
장안동 382-5,동대문구,장안동,태솔아파트1차,17,37.5693351,127.0686457,2016,10년미만
장안동 346-2,동대문구,장안동,태솔아파트2차,33,36.2131823,127.3368794,2016,10년미만
장안동 381-3,동대문구,장안동,한강훼미리,14,37.568495,127.0680336,2009,10년미만
장안동 95-1,동대문구,장안동,현대(95-1),35,37.0665649,127.0855159,1984,30년이상
장안동 373-3,동대문구,장안동,현대썬앤빌601,10,37.5691153,127.0693412,2015,10년미만
장안동 571,동대문구,장안동,현대홈타운3차,10,37.0532961,127.0797074,2006,10~20년
장안동 576,동대문구,장안동,흥해오크팰리스(576-0),5,37.5646106,127.0686061,2007,10~20년
전농동 645-2,동대문구,전농동,동아,29,37.5748739,127.0458603,1992,20~30년
전농동 690,동대문구,전농동,래미안 크레시티,244,37.5792622,127.0554405,2014,10년미만
전농동 688,동대문구,전농동,래미안아름숲,64,37.5806024,127.0610036,2012,10년미만
전농동 10,동대문구,전농동,전농SK,163,37.5764921,127.0604586,2000,10~20년
전농동 155,동대문구,전농동,전농동삼성래미안,31,37.5818725,127.0555328,2000,10~20년
전농동 687,동대문구,전농동,전농동신성미소지움,23,37.5782644,127.0484176,2005,10~20년
전농동 6,동대문구,전농동,전농우성,101,37.5772509,127.0653602,1992,20~30년
제기동 892-68,동대문구,제기동,경동미주,12,37.5791182,127.0357097,1977,30년이상
제기동 153,동대문구,제기동,안암골벽산,47,37.583412,127.0316859,2003,10~20년
제기동 252,동대문구,제기동,이수브라운스톤,18,37.5822992,127.0342126,2005,10~20년
제기동 1212,동대문구,제기동,한신,53,37.5886993,127.039069,1991,20~30년
제기동 892-66,동대문구,제기동,현대,14,37.5800905,127.0358319,1987,30년이상
청량리동 235-1,동대문구,청량리동,미주,83,37.5839977,127.046747,1978,30년이상
청량리동 60,동대문구,청량리동,한신,53,37.5879707,127.0492429,1991,20~30년
휘경동 366,동대문구,휘경동,동일스위트리버,34,37.5873945,127.0688476,2007,10~20년
휘경동 78,동대문구,휘경동,롯데,12,37.590993,127.0634638,1999,10~20년
휘경동 109,동대문구,휘경동,롯데낙천대,16,37.5919025,127.0646516,2003,10~20년
휘경동 368,동대문구,휘경동,브라운스톤휘경,35,37.5900176,127.0636187,2013,10년미만
휘경동 57,동대문구,휘경동,주공1,124,37.583069,127.0702771,1986,30년이상
휘경동 264-2,동대문구,휘경동,효자워너빌,4,37.5898645,127.0605906,2006,10~20년
휘경동 106,동대문구,휘경동,휘경미소지움,24,37.5915268,127.064876,1999,10~20년
휘경동 367,동대문구,휘경동,휘경센트레빌,13,37.5909942,127.0684019,2011,10년미만
노량진동 227-5,동작구,노량진동,노량진맨션,3,37.5075372,126.9417963,1974,30년이상
노량진동 57-1,동작구,노량진동,메가스터디타워,24,37.5129522,126.9415705,2015,10년미만
노량진동 325,동작구,노량진동,신동아리버파크,176,37.5074939,126.9450215,2001,10~20년
노량진동 332,동작구,노량진동,쌍용예가,29,37.5097879,126.9435957,2010,10년미만
노량진동 323,동작구,노량진동,우성,66,37.5095412,126.9477571,1996,20~30년
대방동 501,동작구,대방동,대림아파트,94,37.5071867,126.9246398,1993,20~30년
대방동 508,동작구,대방동,대방1차e-편한세상,48,37.5120199,126.9289027,2003,10~20년
대방동 509,동작구,대방동,보라매코오롱하늘채,20,37.4984878,126.9230343,2005,10~20년
대방동 500,동작구,대방동,성원,29,37.5093489,126.9254944,1998,20~30년
대방동 394-2,동작구,대방동,진성마블로스,9,37.499885,126.9275526,2011,10년미만
동작동 331,동작구,동작동,금강KCC,20,37.4939094,126.9785027,2003,10~20년
동작동 329,동작구,동작동,신동아갯마을,6,37.4970671,126.9809443,2001,10~20년
동작동 333,동작구,동작동,이수힐스테이트,91,37.4998616,126.9742991,2013,10년미만
본동 484,동작구,본동,경동윈츠리버,26,37.5097271,126.9542877,2004,10~20년
본동 494,동작구,본동,래미안트윈파크,52,37.3503263,126.7591782,2011,10년미만
본동 492,동작구,본동,삼성래미안,50,37.509996,126.9502629,2004,10~20년
본동 481,동작구,본동,신동아,91,37.5097279,126.9517303,1992,20~30년
본동 487,동작구,본동,한신휴플러스,27,37.5090557,126.9494945,2004,10~20년
사당동 1134,동작구,사당동,경남아너스빌1차,26,37.4880609,126.9677428,1997,20~30년
사당동 105,동작구,사당동,극동(105),394,37.4897954,126.9760224,1993,20~30년
사당동 212-3,동작구,사당동,남성골든빌A동B동,1,37.4866699,126.9672486,2003,10~20년
사당동 278-8,동작구,사당동,남양이룸,2,37.4820681,126.97105,2005,10~20년
사당동 169-8,동작구,사당동,대림(169-8),75,37.4860835,126.9731614,1990,20~30년
사당동 1155,동작구,사당동,대성유니드,19,37.4932888,126.9752984,2009,10년미만
사당동 1131,동작구,사당동,두산위브트레지움,30,37.4853746,126.971224,2011,10년미만
사당동 1132,동작구,사당동,롯데캐슬,34,37.4906466,126.9722542,2003,10~20년
사당동 1141,동작구,사당동,르메이에르,12,37.4784097,126.9737311,2001,10~20년
사당동 1158,동작구,사당동,반석블레스,3,37.4862548,126.9733325,2016,10년미만
사당동 1149,동작구,사당동,사당롯데캐슬2차,18,37.4902566,126.9715505,2004,10~20년
사당동 1139,동작구,사당동,사당자이,48,37.4886996,126.9624793,1999,10~20년
사당동 1133,동작구,사당동,삼성래미안,71,37.4891824,126.9704888,2004,10~20년
사당동 1150,동작구,사당동,삼익그린뷰,13,37.4772203,126.969485,2003,10~20년
사당동 1137,동작구,사당동,신동아5,20,37.4909724,126.9766746,1998,20~30년
사당동 1157,동작구,사당동,이수역리가,52,37.4862548,126.9733325,2013,10년미만
사당동 147-29,동작구,사당동,이수자이,9,37.4843975,126.9804278,2010,10년미만
상도동 414,동작구,상도동,건영,35,37.5070803,126.9495685,1997,20~30년
상도동 528,동작구,상도동,동원베네스트,14,37.5028916,126.9444394,2005,10~20년
상도동 535,동작구,상도동,두산위브트레지움,39,36.0053637,129.3447653,2011,10년미만
상도동 431,동작구,상도동,래미안상도3차,156,37.4994881,126.9547449,2004,10~20년
상도동 159-41,동작구,상도동,백촌빌라트,1,37.5008618,126.948916,2003,10~20년
상도동 421,동작구,상도동,삼성래미안2,49,37.4980431,126.9584461,2003,10~20년
상도동 531,동작구,상도동,상도 엠코타운 센트럴파크,199,33.5161725,126.8643559,2012,10년미만
상도동 363-164,동작구,상도동,상도 휴엔하임,17,37.5049015,126.9381724,2016,10년미만
상도동 408,동작구,상도동,상도동삼호아파트,33,37.4934178,126.957297,1994,20~30년
상도동 460,동작구,상도동,상도팰리스,5,37.5035718,126.9539517,2006,10~20년
상도동 418,동작구,상도동,쌍용스윗닷홈,29,37.5013752,126.9317114,2003,10~20년
상도동 416,동작구,상도동,아이파크,34,37.5006911,126.9426009,2004,10~20년
상도동 527,동작구,상도동,이수브라운스톤상도(527-0),51,37.5059333,126.9439079,2007,10~20년
상도동 415,동작구,상도동,중앙하이츠빌,63,37.4991652,126.9498321,2003,10~20년
상도동 521,동작구,상도동,포스코더샵,105,37.5019956,126.9429851,2004,10~20년
상도동 407,동작구,상도동,현대(관악),24,37.4924831,126.9577691,1992,20~30년
신대방동 710,동작구,신대방동,경남교수,19,37.4959779,126.9135245,2001,10~20년
신대방동 395-67,동작구,신대방동,롯데관악타워,9,37.4906999,126.9231054,1996,20~30년
신대방동 713,동작구,신대방동,롯데낙천대,51,37.4943308,126.9135326,2003,10~20년
신대방동 720,동작구,신대방동,보라매 e편한세상,41,37.4954694,126.928594,2010,10년미만
신대방동 395-66,동작구,신대방동,보라매삼성쉐르빌,19,37.4913946,126.923403,2003,10~20년
신대방동 711,동작구,신대방동,보라매파크빌,25,37.4943317,126.9154878,2002,10~20년
신대방동 395-65,동작구,신대방동,보라매현대,9,37.4920496,126.9234976,1996,20~30년
신대방동 395-62,동작구,신대방동,삼성보라매옴니타워,1,37.492538,126.9235992,1997,20~30년
신대방동 719,동작구,신대방동,성원상떼빌,47,37.4875294,126.9067493,2006,10~20년
신대방동 712,동작구,신대방동,신대방경남,34,37.4894072,126.9083198,2003,10~20년
신대방동 565,동작구,신대방동,우성1,90,37.4923219,126.9116189,1988,30년이상
신대방동 565-21,동작구,신대방동,우성2,11,37.4928247,126.9104435,1989,20~30년
신대방동 708,동작구,신대방동,해태보라매타워,4,37.491172,126.9249803,1996,20~30년
흑석동 10,동작구,흑석동,명수대현대,48,37.5079381,126.9667317,1988,30년이상
흑석동 327,동작구,흑석동,청호,12,37.5012689,126.9629648,1997,20~30년
흑석동 332,동작구,흑석동,해가든,20,37.5065872,126.9621719,2010,10년미만
흑석동 328,동작구,흑석동,흑석동양아파트,40,37.5003162,126.9586215,2003,10~20년
흑석동 335,동작구,흑석동,흑석한강센트레빌,81,37.13844,128.2445408,2011,10년미만
흑석동 339,동작구,흑석동,흑석한강센트레빌Ⅱ,85,36.2526762,127.3456869,2012,10년미만
공덕동 371,마포구,공덕동,공덕1삼성래미안,33,37.5467117,126.9509874,1999,10~20년
공덕동 43,마포구,공덕동,공덕2삼성래미안,68,37.5510698,126.9595251,2004,10~20년
공덕동 457,마포구,공덕동,공덕3삼성래미안,56,37.5484028,126.951783,2004,10~20년
공덕동 476,마포구,공덕동,공덕파크자이,29,37.5446118,126.9483043,2015,10년미만
공덕동 370-9,마포구,공덕동,공덕현대,9,37.5484592,126.9500157,1989,20~30년
공덕동 464,마포구,공덕동,래미안공덕4차,52,37.5501465,126.9512018,2005,10~20년
공덕동 462,마포구,공덕동,마포공덕파크팰리스Ⅱ,10,37.5472768,126.9530391,2005,10~20년
공덕동 188-108,마포구,공덕동,마포현대,26,37.5498825,126.9499855,1988,30년이상
노고산동 1-3,마포구,노고산동,신촌포스빌,19,37.556221,126.942077,2004,10~20년
대흥동 804,마포구,대흥동,마포자이2차,42,37.5498977,126.9427769,2014,10년미만
대흥동 660,마포구,대흥동,마포태영,125,37.54477,126.9426066,1999,10~20년
대흥동 12-41,마포구,대흥동,서희스타힐스,9,37.5563291,126.9433804,2014,10년미만
도화동 357,마포구,도화동,도화동현대,122,37.5395096,126.9540212,1996,20~30년
도화동 564,마포구,도화동,마포동원베네스트,28,37.5401034,126.952302,2010,10년미만
도화동 559,마포구,도화동,마포트라팰리스,9,37.5413911,126.9470437,2006,10~20년
도화동 550,마포구,도화동,삼성,61,37.540034,126.9503703,1997,20~30년
도화동 82,마포구,도화동,우성,110,37.5364129,126.9470458,1996,20~30년
도화동 555,마포구,도화동,한화오벨리스크,56,37.5399759,126.9454625,2004,10~20년
도화동 353,마포구,도화동,현대,85,37.5378342,126.9517522,1987,30년이상
마포동 449,마포구,마포동,비체힐리버뷰,17,37.5712147,126.9017814,2012,10년미만
마포동 253,마포구,마포동,쌍용,28,37.5370227,126.9457157,1995,20~30년
망원동 496,마포구,망원동,대림1,4,37.5533246,126.9047681,1999,10~20년
망원동 491,마포구,망원동,대상3,10,37.5593548,126.8994009,2000,10~20년
망원동 463-2,마포구,망원동,동보프리미아,3,37.5598253,126.8965191,2004,10~20년
망원동 478-27,마포구,망원동,미원1,2,37.5593852,126.9063545,1996,20~30년
망원동 420,마포구,망원동,성원1,6,37.5566632,126.9009209,1996,20~30년
망원동 517,마포구,망원동,영화블렌하임,9,37.5585367,126.9062899,2009,10년미만
망원동 419-3,마포구,망원동,참존1차(419-3),3,37.5562713,126.8990943,2005,10~20년
망원동 418-5,마포구,망원동,크라운빌,1,37.5553509,126.9002973,2001,10~20년
망원동 509,마포구,망원동,휴먼빌,11,37.5585918,126.8986402,2004,10~20년
상수동 402,마포구,상수동,래미안밤섬리베뉴 Ⅰ,29,37.5466628,126.9281865,2014,10년미만
상수동 353-4,마포구,상수동,밤섬리오팰리스,1,37.5456439,126.9244418,2003,10~20년
상암동 1736,마포구,상암동,상암월드컵파크10단지,14,37.5853823,126.8821816,2010,10년미만
상암동 1741,마포구,상암동,상암월드컵파크11단지,7,37.5875075,126.8812938,2010,10년미만
상암동 1637,마포구,상암동,상암월드컵파크2단지,61,37.5747909,126.891461,2003,10~20년
상암동 1655,마포구,상암동,상암월드컵파크4단지,68,37.5776394,126.8886338,2006,10~20년
상암동 1660,마포구,상암동,상암월드컵파크7단지,60,37.5816659,126.8812657,2005,10~20년
상암동 1630,마포구,상암동,휴먼시아1단지,15,37.574231,126.8961424,2009,10년미만
상암동 1618,마포구,상암동,휴먼시아2단지,14,37.574948,126.8968915,2009,10년미만
서교동 487,마포구,서교동,대우미래사랑,29,37.5570602,126.9167795,2005,10~20년
서교동 490,마포구,서교동,메세나폴리스,24,37.5534897,126.9177304,2012,10년미만
성산동 254-28,마포구,성산동,그레이스,1,37.5592154,126.9088425,2002,10~20년
성산동 249-12,마포구,성산동,반트,4,37.5594322,126.9095897,2013,10년미만
성산동 597,마포구,성산동,성산동성,5,37.5647969,126.905586,1999,10~20년
성산동 446,마포구,성산동,성산시영(대우),303,37.5719329,126.901884,1986,30년이상
성산동 601,마포구,성산동,성산월드타운대림,58,37.5694501,126.9080502,2004,10~20년
성산동 199-53,마포구,성산동,한림101동,3,37.5650331,126.9063851,2004,10~20년
신공덕동 171,마포구,신공덕동,kcc웰츠,14,37.5428088,126.9524554,2011,10년미만
신공덕동 167,마포구,신공덕동,대우메트로디오빌,16,37.5434128,126.9528962,2005,10~20년
신공덕동 173,마포구,신공덕동,대우월드마크마포,33,37.5445917,126.9557029,2011,10년미만
신공덕동 170,마포구,신공덕동,브라운스톤공덕,28,37.5413337,126.9553944,2009,10년미만
신공덕동 159,마포구,신공덕동,신공덕래미안2차,43,37.5464743,126.9581687,2000,10~20년
신공덕동 161,마포구,신공덕동,신공덕래미안3차,43,37.5454024,126.9568811,2003,10~20년
신공덕동 172,마포구,신공덕동,펜트라우스,57,37.5433361,126.954004,2011,10년미만
신수동 456,마포구,신수동,경남아너스빌,14,37.5487865,126.9343577,2008,10~20년
신수동 190,마포구,신수동,신수동성원,26,37.5467393,126.9375486,1998,20~30년
신수동 450,마포구,신수동,신촌삼익,26,37.5513273,126.9353434,1997,20~30년
신정동 30,마포구,신정동,서강GS,31,37.5440717,126.9312054,1999,10~20년
아현동 800,마포구,아현동,공덕자이,17,37.5541171,126.9569379,2015,10년미만
아현동 777,마포구,아현동,마포래미안푸르지오1단지,331,37.5541171,126.9569379,2014,10년미만
아현동 780,마포구,아현동,애오개아이파크,2,37.5541171,126.9569379,2016,10년미만
아현동 371-1,마포구,아현동,예미원,11,37.554705,126.9579364,1970,30년이상
연남동 249-12,마포구,연남동,노블레스(249-12),1,37.5637078,126.92177,2003,10~20년
연남동 246-1,마포구,연남동,노블레스빌(246-1),1,37.5654201,126.9208194,2002,10~20년
연남동 259-1,마포구,연남동,대명,5,37.5615488,126.9236348,1995,20~30년
연남동 244-15,마포구,연남동,새마을,3,37.56568,126.9202758,1970,30년이상
연남동 573,마포구,연남동,코오롱,31,37.5631848,126.9214312,1997,20~30년
연남동 493-27,마포구,연남동,홍익하이빌,5,37.5612567,126.9196695,2004,10~20년
염리동 521,마포구,염리동,마포자이,44,37.5432214,126.9451644,2003,10~20년
염리동 515-1,마포구,염리동,상록,46,37.5515907,126.9483466,1997,20~30년
염리동 520,마포구,염리동,염리삼성래미안,40,37.5488472,126.9466457,2001,10~20년
용강동 502,마포구,용강동,래미안마포리버웰,21,33.4794898,126.5939418,2015,10년미만
중동 36-29,마포구,중동,강림월드타운,3,37.570144,126.9068967,2002,10~20년
중동 393,마포구,중동,건영월드컵,9,37.5686337,126.911749,2002,10~20년
중동 58-39,마포구,중동,예원,1,37.5737707,126.903014,2003,10~20년
중동 398,마포구,중동,울트라월드컵(참누리),30,37.5721699,126.9050842,2006,10~20년
창전동 444,마포구,창전동,서강예가,45,37.5482267,126.9297462,2007,10~20년
창전동 442,마포구,창전동,서강오벨리스크스위트,16,37.5465423,126.9317948,2007,10~20년
창전동 437,마포구,창전동,창전래미안,49,37.5511178,126.9307086,1998,20~30년
토정동 138,마포구,토정동,한강삼성,51,37.5395275,126.9411769,1997,20~30년
하중동 101,마포구,하중동,한강밤섬자이,34,37.5447136,126.9285618,2010,10년미만
합정동 389-16,마포구,합정동,대운행복,4,37.5503403,126.9105064,2004,10~20년
합정동 469,마포구,합정동,한국프라우드,2,37.5486885,126.9085319,2005,10~20년
현석동 222,마포구,현석동,강변힐스테이트,35,37.5433183,126.9328796,2004,10~20년
현석동 225,마포구,현석동,래미안 웰스트림,42,37.5417383,126.9344434,2016,10년미만
현석동 220,마포구,현석동,밤섬힐스테이트,21,37.5426459,126.9327601,1999,10~20년
남가좌동 381,서대문구,남가좌동,DMC센트레빌,38,37.5757437,126.915567,2010,10년미만
남가좌동 385,서대문구,남가좌동,DMC파크뷰자이1단지,305,37.5743455,126.9188972,2015,10년미만
남가좌동 376,서대문구,남가좌동,남가좌동현대,97,37.5747622,126.9205488,1999,10~20년
남가좌동 377,서대문구,남가좌동,남가좌삼성,96,37.5779294,126.916629,2000,10~20년
남가좌동 379,서대문구,남가좌동,래미안남가좌2차,34,37.5718803,126.9127477,2005,10~20년
냉천동 261,서대문구,냉천동,돈의문센트레빌,69,37.5661135,126.9615707,2011,10년미만
대현동 104-36,서대문구,대현동,신촌자이엘라,10,37.5568239,126.9424861,2014,10년미만
북가좌동 481,서대문구,북가좌동,DMC래미안e편한세상,182,37.5784186,126.9099561,2012,10년미만
북가좌동 273-17,서대문구,북가좌동,동도하이츠비동,2,37.584083,126.9147147,2004,10~20년
북가좌동 460,서대문구,북가좌동,북가좌동이랜드해가든,8,37.576165,126.9032381,2007,10~20년
북가좌동 150,서대문구,북가좌동,요진,6,37.5727485,126.9083156,2005,10~20년
북가좌동 456,서대문구,북가좌동,휴먼빌,8,37.5773777,126.9117904,2004,10~20년
북아현동 1-52,서대문구,북아현동,건일팰리스,2,37.564787,126.9571519,2004,10~20년
북아현동 1010,서대문구,북아현동,경남102동,9,37.5610334,126.9568624,2008,10~20년
북아현동 1009,서대문구,북아현동,두산,84,37.5590697,126.9500116,2000,10~20년
북아현동 1006,서대문구,북아현동,북아현경남,16,37.5609424,126.9562446,1996,20~30년
북아현동 1011,서대문구,북아현동,아현역푸르지오,162,37.5609677,126.9542682,2015,10년미만
연희동 106-2,서대문구,연희동,삼우장미,3,37.5722841,126.9285303,2009,10년미만
연희동 740,서대문구,연희동,성원,43,37.5759969,126.9387689,1998,20~30년
연희동 188-41,서대문구,연희동,시민,5,37.5729731,126.9281084,1978,30년이상
연희동 745,서대문구,연희동,연희자이엘라,27,37.5472441,126.6702148,2014,10년미만
영천동 100,서대문구,영천동,독립문삼호,61,37.5700837,126.9584274,1995,20~30년
창천동 368,서대문구,창천동,엘르빌2차,1,37.5595149,126.9284585,2002,10~20년
천연동 145,서대문구,천연동,천연뜨란채,80,37.5674227,126.9584985,2006,10~20년
충정로2가 185-15,서대문구,충정로2가,현대,3,37.5637343,126.9631544,1987,30년이상
충정로3가 189-8,서대문구,충정로3가,미동,6,37.5631891,126.9640664,1969,30년이상
충정로3가 3-19,서대문구,충정로3가,새롬,1,37.5632146,126.9609238,2003,10~20년
충정로3가 466,서대문구,충정로3가,우리유앤미,13,37.5618859,126.9621828,2008,10~20년
충정로3가 477,서대문구,충정로3가,충림예하임,7,37.5625739,126.9627574,2010,10년미만
충정로3가 30-2,서대문구,충정로3가,충정솔레디움(102동),2,37.5618356,126.9609713,2005,10~20년
충정로3가 3-46,서대문구,충정로3가,행복한,2,37.5626109,126.960819,2006,10~20년
현저동 200,서대문구,현저동,독립문극동(200-0),98,37.5719809,126.9567437,1998,20~30년
현저동 1019,서대문구,현저동,독립문파크빌,23,37.5748345,126.9516673,2000,10~20년
홍은동 454,서대문구,홍은동,극동,30,37.6024208,126.9507956,1992,20~30년
홍은동 277-60,서대문구,홍은동,넥서스빌,1,37.581832,126.9328701,2002,10~20년
홍은동 463,서대문구,홍은동,동원베네스트,10,37.5871322,126.9319759,2005,10~20년
홍은동 186-22,서대문구,홍은동,서강1차(1동),6,37.5946824,126.9345573,1988,30년이상
홍은동 22,서대문구,홍은동,유원,22,37.5974195,126.9448606,1987,30년이상
홍은동 453-2,서대문구,홍은동,풍림2,38,37.5932909,126.943046,1990,20~30년
홍은동 202-5,서대문구,홍은동,"현대(1,2차)",38,37.5899283,126.9375328,1988,30년이상
홍은동 455,서대문구,홍은동,홍은동벽산,100,37.5953053,126.9447195,1997,20~30년
홍제동 156-200,서대문구,홍제동,고은,9,37.5854584,126.9448699,1975,30년이상
홍제동 457,서대문구,홍제동,남양,11,37.588762,126.938188,1999,10~20년
홍제동 312-221,서대문구,홍제동,동일5차101동,3,37.5862953,126.9418383,2005,10~20년
홍제동 463,서대문구,홍제동,문화촌현대,57,37.7462989,128.8749085,2002,10~20년
홍제동 315-7,서대문구,홍제동,서울맨션,16,37.5868293,126.9436073,1972,30년이상
홍제동 454,서대문구,홍제동,유원하나,29,37.7459016,128.8724778,1996,20~30년
홍제동 465,서대문구,홍제동,인왕산벽산,21,37.5924477,126.9484094,2003,10~20년
홍제동 469,서대문구,홍제동,인왕산한신휴플러스,9,37.5850354,126.9474505,2009,10년미만
홍제동 453,서대문구,홍제동,청구1차,49,37.5821174,126.9517497,1994,20~30년
홍제동 157-3,서대문구,홍제동,홍제그린빌,3,37.5853858,126.9459227,2003,10~20년
홍제동 468,서대문구,홍제동,홍제비콘드림힐,11,37.5905085,126.949201,2006,10~20년
홍제동 461,서대문구,홍제동,홍제삼성래미안,50,37.5782572,126.9511268,2001,10~20년
홍제동 459,서대문구,홍제동,홍제원현대(459-0),71,37.5877692,126.9494761,2000,10~20년
홍제동 82,서대문구,홍제동,홍제한양,81,37.5830576,126.9472406,1993,20~30년
홍제동 331,서대문구,홍제동,홍제현대,63,37.588844,126.9412984,1992,20~30년
반포동 1-8,서초구,반포동,경남,48,37.5064627,126.9992311,1989,20~30년
반포동 18-1,서초구,반포동,래미안퍼스티지,148,37.5027777,126.9983054,2009,10년미만
반포동 87-7,서초구,반포동,마메죵,2,37.4950195,126.9990265,2003,10~20년
반포동 577-3,서초구,반포동,몽마르뜨빌(577-3),4,37.4947724,126.9992118,2002,10~20년
반포동 757,서초구,반포동,반포 주공1단지,56,37.5051966,126.9890563,1973,30년이상
반포동 30-26,서초구,반포동,반포리체,77,37.5035723,127.0134864,2011,10년미만
반포동 60-4,서초구,반포동,반포미도,62,37.5013408,127.0090224,1987,30년이상
반포동 60-5,서초구,반포동,반포미도2차아파트,27,37.5021688,127.0075039,1989,20~30년
반포동 612-31,서초구,반포동,반포아델스빌,3,37.4969232,126.9936937,2007,10~20년
반포동 20-43,서초구,반포동,반포자이,235,37.5064194,127.014218,2009,10년미만
반포동 99-3,서초구,반포동,상지리츠빌2차,4,37.4943825,126.99659,2004,10~20년
반포동 2-12,서초구,반포동,아크로리버파크,87,37.5035769,126.9936372,2016,10년미만
반포동 968,서초구,반포동,에이아이디차관,42,37.5006748,126.9912265,1974,30년이상
반포동 99-1,서초구,반포동,엘리제빌,3,37.4946505,126.9968477,2007,10~20년
반포동 46,서초구,반포동,엠브이아파트,11,37.4990493,127.0100762,1994,20~30년
반포동 107-19,서초구,반포동,정광,1,37.4984214,126.9963132,2004,10~20년
반포동 1-1,서초구,반포동,한신3차,50,37.5067339,126.9973104,1990,20~30년
방배동 444-3,서초구,방배동,SK리더스뷰(파스텔시티),14,37.4776551,126.9822232,2006,10~20년
방배동 1028-1,서초구,방배동,경남,16,37.4763316,126.9997597,1989,20~30년
방배동 1038,서초구,방배동,대우(효령),31,37.4796635,126.9938925,1992,20~30년
방배동 3275,서초구,방배동,동부센트레빌,13,37.4977038,126.9879326,2005,10~20년
방배동 1008-2,서초구,방배동,래미안방배아트힐(1008-2),50,37.4776419,127.0052245,2004,10~20년
방배동 775-1,서초구,방배동,래미안방배에버뉴,7,37.494048,126.9884229,1977,30년이상
방배동 424-28,서초구,방배동,롯데캐슬아르떼,102,37.4837808,126.9835868,2013,10년미만
방배동 754-1,서초구,방배동,롯데캐슬헤론,28,37.4969267,126.984625,2006,10~20년
방배동 1344,서초구,방배동,방배1차현대홈타운,37,37.4885501,126.9838383,1999,10~20년
방배동 1-7,서초구,방배동,방배동갤러리하우스3,1,37.493986,126.993939,2003,10~20년
방배동 485-3,서초구,방배동,방배래미안타워,26,37.4748113,126.9911492,2005,10~20년
방배동 930-1,서초구,방배동,방배브라운가,12,37.4835189,126.9917625,2006,10~20년
방배동 3277,서초구,방배동,방배아이파크,8,37.4916295,126.9848437,2006,10~20년
방배동 2525,서초구,방배동,방배우성,19,37.4741935,126.9828761,1991,20~30년
방배동 888-53,서초구,방배동,방배자이,4,37.4862659,126.999141,2003,10~20년
방배동 593-32,서초구,방배동,방배호원,1,37.475954,126.9938031,2002,10~20년
방배동 808-10,서초구,방배동,벨루체팰리스,1,37.4920721,126.9930837,2007,10~20년
방배동 899-16,서초구,방배동,브라운스톤방배,7,37.4867528,126.9950423,2005,10~20년
방배동 1018-1,서초구,방배동,삼익,20,37.4787922,127.0014386,1983,30년이상
방배동 1002-10,서초구,방배동,삼환나띠르빌(1002-10),1,37.479935,127.0055345,2003,10~20년
방배동 843-10,서초구,방배동,상지리츠빌6차,1,37.492149,126.996396,2004,10~20년
방배동 988-1,서초구,방배동,신동아,34,37.4812032,127.0015264,1992,20~30년
방배동 890-8,서초구,방배동,신호나이스빌,2,37.4869348,126.9980115,2003,10~20년
방배동 776-3,서초구,방배동,쌍용예가클래식,16,37.4937342,126.987665,1978,30년이상
방배동 799-8,서초구,방배동,써니힐즈,1,37.4928983,126.9974162,2013,10년미만
방배동 847-34,서초구,방배동,유로카운티,3,37.491024,126.9969753,2002,10~20년
방배동 1015,서초구,방배동,임광,8,37.4769811,127.0024011,2000,10~20년
방배동 816-1,서초구,방배동,한신트리플,6,37.4912177,126.9892572,2004,10~20년
서초동 1456-2,서초구,서초동,경남아너스빌201동,11,37.4837819,127.0141662,2006,10~20년
서초동 1471-3,서초구,서초동,다솔,2,37.4811356,127.0095505,2004,10~20년
서초동 1671-5,서초구,서초동,대림서초리시온,13,37.49343,127.0154303,2003,10~20년
서초동 1445-14,서초구,서초동,더샵서초,26,37.4839571,127.01811,2006,10~20년
서초동 1301-6,서초구,서초동,래미안서초스위트,24,37.5021291,127.0204507,2009,10년미만
서초동 1332-13,서초구,서초동,래미안서초에스티지,23,37.4928137,127.0253095,2016,10년미만
서초동 1359-50,서초구,서초동,롯데캐슬쥬피터,11,37.4864739,127.0303559,2003,10~20년
서초동 1312-3,서초구,서초동,롯데캐슬클래식,94,37.5003349,127.0220553,2006,10~20년
서초동 1335,서초구,서초동,무지개,75,37.4890172,127.026147,1980,30년이상
서초동 1330,서초구,서초동,삼성쉐르빌2,21,37.4939235,127.0278995,2002,10~20년
서초동 1685,서초구,서초동,삼풍,92,37.4985336,127.0155431,1988,30년이상
서초동 1492-13,서초구,서초동,상지리츠빌(3),1,37.4841706,127.0032565,2004,10~20년
서초동 1456-1,서초구,서초동,서린,1,37.4837379,127.0135392,2004,10~20년
서초동 1467-62,서초구,서초동,서초5차e편한세상,7,37.4796692,127.0072407,2005,10~20년
서초동 1326,서초구,서초동,서초가든스위트,6,37.494189,127.0258921,2000,10~20년
서초동 1686-9,서초구,서초동,서초교대e편한세상,52,37.4964774,127.0171601,2010,10년미만
서초동 1616-10,서초구,서초동,서초극동스타클래스,9,37.4877818,127.0228657,2003,10~20년
서초동 1675-11,서초구,서초동,서초대우아이빌,5,37.4941724,127.0174776,2003,10~20년
서초동 1507-38,서초구,서초동,서초동두산위브2,5,37.4869785,127.0046778,2005,10~20년
서초동 1620-20,서초구,서초동,서초동롯데캐슬리버티,8,37.4873363,127.0168412,2005,10~20년
서초동 1321-6,서초구,서초동,서초동아타워,2,37.4959396,127.0252259,1996,20~30년
서초동 1359,서초구,서초동,서초동현대리츠빌,2,37.4867495,127.0295676,2002,10~20년
서초동 1682,서초구,서초동,서초래미안,81,37.4987627,127.0186049,2003,10~20년
서초동 1642-14,서초구,서초동,서초롯데캐슬84,5,37.4924413,127.0182093,2001,10~20년
서초동 1681-8,서초구,서초동,서초롯데캐슬프레지던트,34,37.4965718,127.0198437,2014,10년미만
서초동 1568-1,서초구,서초동,서초아크빌,3,37.4907731,127.0128666,2003,10~20년
서초동 1327,서초구,서초동,서초타운트라팰리스,8,37.4955719,127.0270752,2006,10~20년
서초동 1344-13,서초구,서초동,서초트라팰리스,29,37.4867542,127.0283802,2005,10~20년
서초동 1509-1,서초구,서초동,서초한빛삼성,15,37.4883044,127.0080537,1999,10~20년
서초동 1648-2,서초구,서초동,서초현대,25,37.4906242,127.0200887,1999,10~20년
서초동 1334-1,서초구,서초동,신동아2,3,37.4906059,127.0269281,1979,30년이상
서초동 1434-2,서초구,서초동,신원아침도시(1434),5,37.484451,127.0236746,2004,10~20년
서초동 1326-17,서초구,서초동,우성5,19,37.4947315,127.0267841,1998,20~30년
서초동 1450-1,서초구,서초동,월드메르디앙(오페라),2,37.4813557,127.0139968,2004,10~20년
서초동 1364-51,서초구,서초동,장미,1,37.485081,127.031361,1994,20~30년
서초동 1338,서초구,서초동,현대ESA,13,37.4908368,127.0294751,2002,10~20년
서초동 1446-11,서초구,서초동,현대슈퍼빌,28,37.4830516,127.0161646,2003,10~20년
서초동 1436-14,서초구,서초동,현대아이파크,10,37.4856659,127.0229385,2003,10~20년
신원동 가-690,서초구,신원동,서초포레스타5단지,37,39.0092515,125.7742218,2014,10년미만
양재동 90,서초구,양재동,신영체르니,13,37.4789715,127.0414697,2002,10~20년
양재동 154-2,서초구,양재동,우성,42,37.4752224,127.0308902,1996,20~30년
양재동 8-36,서초구,양재동,태양파크빌,3,37.4835726,127.0392965,2002,10~20년
우면동 764,서초구,우면동,계룡리슈빌 S,8,37.4651959,127.0164423,2014,10년미만
우면동 57,서초구,우면동,대림,26,37.4728907,127.023046,1995,20~30년
우면동 59,서초구,우면동,동고,35,37.4712084,127.0235846,1995,20~30년
우면동 717,서초구,우면동,서초네이처힐3단지,42,37.4640807,127.0276936,2013,10년미만
우면동 753,서초구,우면동,서초참누리에코리치,50,37.4651959,127.0164423,2013,10년미만
우면동 67,서초구,우면동,한라,18,37.4713947,127.0258455,1994,20~30년
잠원동 57,서초구,잠원동,57-0,1,37.5147075,127.0122041,2016,10년미만
잠원동 157,서초구,잠원동,동아,65,37.5086508,127.010067,1992,20~30년
잠원동 158,서초구,잠원동,래미안 신반포 팰리스,25,37.5154121,127.0096227,2016,10년미만
잠원동 50-1,서초구,잠원동,롯데캐슬갤럭시(50-1),25,37.5189271,127.0159834,2004,10~20년
잠원동 54,서초구,잠원동,미주파스텔,12,37.517265,127.0110618,2002,10~20년
잠원동 32-22,서초구,잠원동,보미리아파트,5,37.5122551,127.0160133,2001,10~20년
잠원동 71-1,서초구,잠원동,블루힐하우스,10,37.5118135,127.0059973,1999,10~20년
잠원동 58-16,서초구,잠원동,신반포10,47,37.5125168,127.0141197,1981,30년이상
잠원동 58-24,서초구,잠원동,신반포11,21,37.5094191,127.0130498,1981,30년이상
잠원동 55-12,서초구,잠원동,신반포16,58,37.5173311,127.0101356,1983,30년이상
잠원동 73,서초구,잠원동,신반포2,88,37.5103475,127.0023599,1978,30년이상
잠원동 74-2,서초구,잠원동,신반포6,14,37.5070737,127.0015857,1980,30년이상
잠원동 65-32,서초구,잠원동,신반포7,9,37.5121715,127.0079619,1980,30년이상
잠원동 60-3,서초구,잠원동,신반포8,40,37.5115117,127.0123435,1981,30년이상
잠원동 54-7,서초구,잠원동,신화,20,37.5155958,127.0135917,1997,20~30년
잠원동 33-11,서초구,잠원동,월드메르디앙,8,37.5125466,127.0163952,2002,10~20년
잠원동 31-14,서초구,잠원동,잠원동대주피오레,8,37.5128131,127.0170218,2002,10~20년
잠원동 63-2,서초구,잠원동,청구,20,37.5139308,127.0084374,1999,10~20년
잠원동 71-11,서초구,잠원동,한신타워,17,37.5107842,127.0059623,1996,20~30년
금호동1가 1500,성동구,금호동1가,금호삼성래미안,42,37.5490395,127.0272339,2001,10~20년
금호동1가 633,성동구,금호동1가,벽산,179,37.5519071,127.0271876,1999,10~20년
금호동2가 1215,성동구,금호동2가,금호자이1차,64,37.5528666,127.0223753,2012,10년미만
금호동2가 1217,성동구,금호동2가,래미안하이리버,124,37.5508804,127.0205905,2012,10년미만
금호동2가 1,성동구,금호동2가,신금호파크자이,87,37.5567056,127.0196111,2016,10년미만
금호동3가 917,성동구,금호동3가,금호1차푸르지오,26,37.5497671,127.0206481,2005,10~20년
금호동3가 1662,성동구,금호동3가,금호한신,33,37.5502312,127.0178297,2005,10~20년
금호동3가 1331,성동구,금호동3가,두산,107,37.5498685,127.0162524,2000,10~20년
금호동4가 800,성동구,금호동4가,대우,127,37.5459238,127.019517,2000,10~20년
금호동4가 1507,성동구,금호동4가,브라운스톤금호,19,37.5466414,127.0157697,2007,10~20년
금호동4가 340,성동구,금호동4가,서울숲푸르지오,106,37.5446984,127.0223406,2007,10~20년
금호동4가 235,성동구,금호동4가,서울숲푸르지오2차,43,37.5463204,127.0242025,2012,10년미만
도선동 69,성동구,도선동,삼성쉐르빌,28,37.5642545,127.0349244,2006,10~20년
마장동 825,성동구,마장동,대성유니드,20,37.566807,127.0387764,2009,10년미만
마장동 819,성동구,마장동,마장동중앙하이츠,11,37.5654122,127.0391,1999,10~20년
마장동 834,성동구,마장동,삼성홈타운,8,37.5662583,127.0453796,2015,10년미만
마장동 784,성동구,마장동,세림,52,37.5649731,127.0451728,2015,10년미만
마장동 822,성동구,마장동,신성미소지움,20,37.5688481,127.0436789,2003,10~20년
사근동 314,성동구,사근동,벽산,8,37.5605558,127.049485,1999,10~20년
사근동 199,성동구,사근동,중앙하이츠,16,37.5616251,127.0485602,1992,20~30년
상왕십리동 811,성동구,상왕십리동,텐즈힐(2구역),139,37.5679524,127.0249238,2014,10년미만
성수동1가 685-696,성동구,성수동1가,갤러리아 포레,11,37.5457427,127.04246,2011,10년미만
성수동1가 709,성동구,성수동1가,대우2,20,37.5483977,127.0501181,1999,10~20년
성수동1가 656-320,성동구,성수동1가,동아,30,37.5443817,127.0457512,1992,20~30년
성수동1가 708,성동구,성수동1가,동아그린,22,37.5507561,127.0482536,1996,20~30년
성수동1가 13-157,성동구,성수동1가,뚝섬현대,4,37.54768,127.048828,1992,20~30년
성수동1가 707,성동구,성수동1가,서울숲한양현대,7,37.5454944,127.047972,1999,10~20년
성수동1가 33-2,성동구,성수동1가,현대그린,28,37.5406149,127.0498276,1994,20~30년
성수동2가 609-2,성동구,성수동2가,강변임광,16,37.5350621,127.0571848,2000,10~20년
성수동2가 745,성동구,성수동2가,강변청구3,3,37.5353553,127.0539518,1995,20~30년
성수동2가 836,성동구,성수동2가,금강아미움,7,37.5465828,127.0596595,2004,10~20년
성수동2가 840,성동구,성수동2가,대명루첸,5,37.5370384,127.0591445,2009,10년미만
성수동2가 838,성동구,성수동2가,성수동두산위브,15,37.5370453,127.0585323,2006,10~20년
성수동2가 286,성동구,성수동2가,우방2,16,37.5484434,127.0516509,1999,10~20년
성수동2가 712,성동구,성수동2가,청구강변1,23,37.5353904,127.0548565,1994,20~30년
성수동2가 442,성동구,성수동2가,한신한강,16,37.535772,127.0527777,2000,10~20년
성수동2가 834,성동구,성수동2가,현대I-PARK,64,37.5472605,127.0566158,2003,10~20년
성수동2가 843,성동구,성수동2가,힐스테이트,66,37.5412119,127.0521329,2009,10년미만
송정동 90,성동구,송정동,건영,28,37.555905,127.0708116,1997,20~30년
송정동 104,성동구,송정동,서울숲아이파크,31,37.5528673,127.069171,2009,10년미만
옥수동 436,성동구,옥수동,극동그린,34,37.5418197,127.0102397,1997,20~30년
옥수동 12,성동구,옥수동,동인샤인빌,5,37.5449688,127.0175706,2003,10~20년
옥수동 561,성동구,옥수동,래미안 옥수 리버젠,127,37.5435935,127.0134664,2012,10년미만
옥수동 250,성동구,옥수동,삼성,74,37.5422258,127.0141937,1997,20~30년
옥수동 560,성동구,옥수동,옥수 어울림,25,37.5422885,127.0181535,2011,10년미만
옥수동 528,성동구,옥수동,옥수파크힐스,29,37.5462602,127.0112278,2016,10년미만
옥수동 100,성동구,옥수동,옥수하이츠,31,37.5401176,127.0163862,1998,20~30년
옥수동 60,성동구,옥수동,풍림아이원,19,37.5421267,127.0193947,2004,10~20년
응봉동 98,성동구,응봉동,금호현대,60,37.5509707,127.0309944,1990,20~30년
응봉동 100,성동구,응봉동,대림(1차),73,37.5515893,127.0330269,1986,30년이상
응봉동 97,성동구,응봉동,대림(2차),42,37.5526679,127.0323814,1989,20~30년
응봉동 15,성동구,응봉동,대림강변,97,37.5534327,127.0356605,2001,10~20년
응봉동 276,성동구,응봉동,동아리버그린,51,37.5529412,127.0372614,2003,10~20년
하왕십리동 1058,성동구,하왕십리동,극동미라주,29,37.5583372,127.0233961,2001,10~20년
하왕십리동 992,성동구,하왕십리동,무학현대,17,37.560892,127.0281381,1996,20~30년
하왕십리동 1002,성동구,하왕십리동,왕십리KCC스위첸,10,37.5604214,127.0259224,2016,10년미만
하왕십리동 258,성동구,하왕십리동,청계벽산,54,37.568672,127.0320307,1996,20~30년
하왕십리동 1066,성동구,하왕십리동,텐즈힐아파트(1단지),209,37.5689559,127.0279598,2015,10년미만
하왕십리동 1061,성동구,하왕십리동,풍림아이원,105,37.5588914,127.0252632,2004,10~20년
하왕십리동 990,성동구,하왕십리동,한신무학,27,37.56255,127.0281505,1989,20~30년
행당동 347,성동구,행당동,대림e-편한세상,251,37.5578253,127.027423,2003,10~20년
행당동 375,성동구,행당동,두산위브,26,37.5697905,127.026698,2007,10~20년
행당동 155-1,성동구,행당동,서울숲더샵,66,37.5570821,127.0400999,2014,10년미만
행당동 376,성동구,행당동,서울숲행당푸르지오,56,37.5555131,127.0330068,2011,10년미만
행당동 346,성동구,행당동,행당 한진타운,246,37.5559126,127.0290958,2000,10~20년
행당동 349,성동구,행당동,행당한신,147,37.5551685,127.0361451,2003,10~20년
길음동 1280,성북구,길음동,길음뉴타운2단지푸르지오,115,37.6108287,127.0179463,2005,10~20년
길음동 1280-1,성북구,길음동,길음뉴타운3단지푸르지오,41,37.6094589,127.0173742,2005,10~20년
길음동 1281,성북구,길음동,길음뉴타운4단지(e편한세상),158,37.6119424,127.0194697,2005,10~20년
길음동 1282,성북구,길음동,길음뉴타운5단지(래미안),72,37.6097759,127.0206116,2006,10~20년
길음동 1283,성북구,길음동,길음뉴타운6단지(래미안),106,37.6063008,127.0228112,2007,10~20년
길음동 1285,성북구,길음동,길음뉴타운7단지(두산위브),38,37.6095887,127.0186795,2010,10년미만
길음동 1284,성북구,길음동,길음뉴타운8단지(래미안),177,37.6075197,127.018009,2010,10년미만
길음동 1286,성북구,길음동,길음뉴타운9단지(래미안),101,37.6035622,127.0198289,2010,10년미만
길음동 1278,성북구,길음동,길음동동부센트레빌(1278-0),155,37.6103878,127.0243231,2003,10~20년
길음동 1276,성북구,길음동,돈암2-1삼부,67,37.602671,127.0236243,1998,20~30년
길음동 1279,성북구,길음동,래미안길음1차,121,37.6058638,127.0203016,2003,10~20년
돈암동 624,성북구,돈암동,구현대,2,37.601645,127.024854,1981,30년이상
돈암동 643,성북구,돈암동,길음역 금호어울림,43,37.6005277,127.023636,2014,10년미만
돈암동 642,성북구,돈암동,돈암동 해피트리,19,37.6005277,127.023636,2013,10년미만
돈암동 15-1,성북구,돈암동,돈암동삼성,77,37.599028,127.0233899,1999,10~20년
돈암동 524,성북구,돈암동,돈암동휴먼빌,43,37.6008239,127.0125842,2005,10~20년
돈암동 644,성북구,돈암동,돈암코오롱하늘채아파트,5,37.6005277,127.023636,2016,10년미만
돈암동 633,성북구,돈암동,동부센트레빌,47,37.602143,127.0262382,2005,10~20년
돈암동 631,성북구,돈암동,범양,42,37.603322,127.0279409,1998,20~30년
돈암동 636,성북구,돈암동,이수브라운스톤돈암,99,37.5975955,127.01787,2004,10~20년
돈암동 603,성북구,돈암동,포스코더샵,20,37.5974374,127.0100538,2004,10~20년
돈암동 609-1,성북구,돈암동,한신,260,37.5947663,127.0104379,1991,20~30년
돈암동 1,성북구,돈암동,현대,31,37.603171,127.0261274,1987,30년이상
동소문동4가 279,성북구,동소문동4가,송산아파트,14,37.592267,127.0104552,1998,20~30년
동소문동6가 3-1,성북구,동소문동6가,시티플레이스,10,37.5922073,127.0134454,2015,10년미만
동소문동7가 23,성북구,동소문동7가,한신플러스C,31,37.595164,127.014139,2004,10~20년
보문동6가 356,성북구,보문동6가,동문골드빌B동,1,37.5784651,127.0194391,2003,10~20년
보문동6가 36-2,성북구,보문동6가,아남,18,37.5810281,127.0174344,1994,20~30년
삼선동2가 420,성북구,삼선동2가,삼선현대힐스테이트,46,37.5820767,127.0135213,2009,10년미만
삼선동3가 21-4,성북구,삼선동3가,유니아테라스,3,37.5877073,127.0134187,2003,10~20년
상월곡동 101,성북구,상월곡동,동아에코빌,125,37.607923,127.0453013,2003,10~20년
상월곡동 55-56,성북구,상월곡동,우남푸르미아,12,37.6057268,127.0464834,2007,10~20년
석관동 10,성북구,석관동,두산,123,37.6126112,127.0687734,2000,10~20년
석관동 404,성북구,석관동,삼성,6,37.6099646,127.0656657,1997,20~30년
석관동 408,성북구,석관동,신동아파밀리에,20,37.6074789,127.0534864,2002,10~20년
석관동 405,성북구,석관동,코오롱,27,37.6062279,127.0656478,1997,20~30년
안암동1가 361,성북구,안암동1가,안암동삼성래미안,35,37.5893024,127.0238533,2005,10~20년
안암동3가 135,성북구,안암동3가,삼익,7,37.5814922,127.0249426,1983,30년이상
장위동 314,성북구,장위동,그린빌아파트,1,37.6176203,127.0429084,2002,10~20년
장위동 317,성북구,장위동,꿈의숲대명루첸아피트,58,37.62034,127.0470739,2008,10~20년
장위동 312,성북구,장위동,우방아파트,19,37.6103478,127.055175,2001,10~20년
장위동 316-5,성북구,장위동,참누리아파트,26,37.6231809,127.049523,2006,10~20년
정릉동 1015,성북구,정릉동,경남,55,37.6042574,127.0171799,1989,20~30년
정릉동 1021,성북구,정릉동,대우,39,37.6177592,127.0034128,2000,10~20년
정릉동 1034,성북구,정릉동,라온유,31,37.6032405,127.0182023,2008,10~20년
정릉동 1016,성북구,정릉동,우방,21,37.6003233,127.0099374,1999,10~20년
정릉동 1028,성북구,정릉동,정릉e-편한세상,57,37.615258,127.0101574,2006,10~20년
정릉동 767-2,성북구,정릉동,정릉동푸른,3,37.6160372,127.0028626,2003,10~20년
정릉동 1014,성북구,정릉동,정릉스카이 쌍용 아파트,37,37.5995886,127.0166785,1999,10~20년
정릉동 1020,성북구,정릉동,정릉우성아파트 101~105동,52,37.6009374,127.0155984,2000,10~20년
정릉동 406,성북구,정릉동,정릉푸르지오,34,37.6061668,127.0099721,2005,10~20년
정릉동 239,성북구,정릉동,정릉풍림아이원,173,37.6186219,127.007307,2005,10~20년
정릉동 435,성북구,정릉동,정릉하이츠빌2단지,51,37.6037774,127.0105236,2005,10~20년
정릉동 1029,성북구,정릉동,정릉한일유앤아이,5,37.6171031,126.9987128,2006,10~20년
정릉동 1031,성북구,정릉동,정릉힐스테이트3차,41,37.6144259,127.0077456,2008,10~20년
종암동 128,성북구,종암동,극동,16,37.5952054,127.0339666,1992,20~30년
종암동 134,성북구,종암동,래미안라센트,62,37.5996248,127.0387994,2011,10년미만
종암동 133,성북구,종암동,래미안세레니티,77,37.5992432,127.0310266,2009,10년미만
종암동 80,성북구,종암동,삼성래미안,140,37.6009545,127.0301755,2004,10~20년
종암동 131,성북구,종암동,아이파크2차,54,37.5968304,127.0317057,2005,10~20년
종암동 130,성북구,종암동,아이파크종암동,37,37.6025363,127.0298016,2004,10~20년
종암동 104-1,성북구,종암동,종암에스케이,117,37.6010514,127.0368411,1999,10~20년
하월곡동 90-723,성북구,하월곡동,광남캐스빌,5,37.6046639,127.0322395,2008,10~20년
하월곡동 219,성북구,하월곡동,동신,57,37.6044161,127.0353254,1983,30년이상
하월곡동 230,성북구,하월곡동,동일하이빌뉴시티,44,37.6041779,127.0409997,2011,10년미만
하월곡동 225,성북구,하월곡동,래미안월곡,149,37.6105228,127.0369217,2006,10~20년
하월곡동 224,성북구,하월곡동,샹그레빌,18,37.5962529,127.0413171,2004,10~20년
하월곡동 222,성북구,하월곡동,월곡두산위브,207,37.6069136,127.0386139,2003,10~20년
하월곡동 226,성북구,하월곡동,월곡래미안루나밸리,68,37.5990315,127.0421761,2007,10~20년
가락동 140,송파구,가락동,가락(1차)쌍용아파트,289,37.495533,127.1281419,1997,20~30년
가락동 141-7,송파구,가락동,가락그랑밸리,1,37.4944561,127.1265396,2001,10~20년
가락동 95-1,송파구,가락동,가락금호아파트,113,37.4961448,127.1163814,1997,20~30년
가락동 21-6,송파구,가락동,가락쌍용(2차),45,37.5015104,127.122275,1999,10~20년
가락동 192,송파구,가락동,극동,22,37.4957107,127.1324576,1992,20~30년
가락동 16-12,송파구,가락동,동일씨티빌,1,37.4999241,127.1256152,2006,10~20년
가락동 98,송파구,가락동,두산위브,27,37.4945505,127.1191177,2007,10~20년
가락동 165,송파구,가락동,래미안파크팰리스,83,37.4980961,127.1321303,2007,10~20년
가락동 79,송파구,가락동,롯데캐슬,14,37.4943071,127.121397,2003,10~20년
가락동 478,송파구,가락동,송파동부쎈트레빌,19,37.5003479,127.1090224,2004,10~20년
가락동 52,송파구,가락동,쌍용스윗닷홈(104동),8,37.4980585,127.1227644,2005,10~20년
가락동 51-1,송파구,가락동,쌍용스윗닷홈(105동),9,37.4983363,127.122449,2005,10~20년
가락동 126-2,송파구,가락동,프라임,3,37.4924254,127.1267091,2002,10~20년
가락동 102,송파구,가락동,한신1,24,37.489756,127.1217759,1988,30년이상
가락동 78-1,송파구,가락동,한화오벨리스크,14,37.4948146,127.1219124,2004,10~20년
가락동 1-10,송파구,가락동,현대빌라트1,1,37.5039218,127.1242487,1996,20~30년
가락동 171,송파구,가락동,현진타워,2,37.4975531,127.1343815,2015,10년미만
거여동 290,송파구,거여동,거여1단지,106,37.4908734,127.1445037,1997,20~30년
거여동 291,송파구,거여동,거여2단지동아,31,37.4903176,127.146152,1997,20~30년
거여동 294,송파구,거여동,거여5단지,65,37.4888158,127.1453108,1997,20~30년
거여동 34,송파구,거여동,메이저A동,1,37.4929344,127.1507949,2004,10~20년
거여동 136,송파구,거여동,삼호,10,37.4965184,127.1436149,1999,10~20년
거여동 28,송파구,거여동,쌍용스윗닷홈 거여역1차,6,37.4919953,127.1461442,2006,10~20년
거여동 27-5,송파구,거여동,쌍용스윗닷홈2차,5,37.4926974,127.1455368,2006,10~20년
거여동 46,송파구,거여동,현대3차,25,37.4969251,127.1451596,1993,20~30년
마천동 30-2,송파구,마천동,다우림,2,35.1228556,128.7902211,2004,10~20년
마천동 575,송파구,마천동,마천금호어울림1차아파트,14,37.4983085,127.1547183,2002,10~20년
마천동 304,송파구,마천동,마천동금호타운1,14,37.4948398,127.1532522,1998,20~30년
마천동 200-75,송파구,마천동,보보스빌,1,37.497842,127.1539885,2004,10~20년
마천동 573,송파구,마천동,삼익1,17,37.498991,127.1536306,1996,20~30년
마천동 22,송파구,마천동,성영,2,37.4996705,127.1451464,2000,10~20년
마천동 582,송파구,마천동,송파파크데일1단지,35,37.4990271,127.1590711,2011,10년미만
마천동 607,송파구,마천동,송파파크데일2단지,35,37.4959139,127.1589319,2011,10년미만
마천동 9,송파구,마천동,아남,11,35.1285878,128.7895096,1994,20~30년
마천동 576,송파구,마천동,우방아파트,13,37.5003803,127.1519852,2001,10~20년
문정동 72-3,송파구,문정동,건영1,71,37.4815144,127.12584,1984,30년이상
문정동 113-3,송파구,문정동,문정그린,1,37.4863199,127.1334426,2001,10~20년
문정동 19,송파구,문정동,문정대우푸르지오,19,37.4868019,127.1271929,2001,10~20년
문정동 1,송파구,문정동,문정래미안,143,37.4905107,127.1303692,2004,10~20년
문정동 18,송파구,문정동,문정푸르지오,22,37.4868665,127.1281285,1999,10~20년
문정동 146,송파구,문정동,세양청마루,16,37.4924098,127.1369638,2005,10~20년
문정동 618,송파구,문정동,파크하비오,35,36.8026941,128.5988353,2016,10년미만
문정동 58,송파구,문정동,현대2,12,37.4838721,127.1245665,1993,20~30년
문정동 150,송파구,문정동,훼밀리,307,37.4885861,127.1153362,1988,30년이상
방이동 39-2,송파구,방이동,신동아타워,9,37.5156064,127.1105775,1995,20~30년
방이동 171,송파구,방이동,올림픽베어스타운1,6,37.5148543,127.1187965,1996,20~30년
방이동 89,송파구,방이동,올림픽선수기자촌2단지,255,37.5140777,127.1334283,1988,30년이상
방이동 51-4,송파구,방이동,올림픽카운티,11,37.5148335,127.1145627,2003,10~20년
삼전동 72-9,송파구,삼전동,경덕,3,37.502272,127.0937844,2003,10~20년
삼전동 53-5,송파구,삼전동,삼성,2,37.4999089,127.0900796,1997,20~30년
삼전동 7-16,송파구,삼전동,엘에스타워,1,37.5047126,127.088931,2016,10년미만
삼전동 39,송파구,삼전동,현대1,9,37.5002643,127.0886153,1994,20~30년
석촌동 158-5,송파구,석촌동,미켈란호수가,6,37.5073341,127.1022797,2007,10~20년
석촌동 285,송파구,석촌동,잠실한솔,20,37.5036172,127.1046428,2000,10~20년
송파동 151,송파구,송파동,2차한양아파트,43,37.5045838,127.1163419,1984,30년이상
송파동 166,송파구,송파동,가락삼익맨숀,71,37.5055381,127.1211805,1984,30년이상
송파동 161,송파구,송파동,미성맨션,36,37.5058263,127.119104,1985,30년이상
송파동 162,송파구,송파동,송파삼성래미안아파트,103,37.5046082,127.118771,2001,10~20년
송파동 119,송파구,송파동,한양아파트,36,37.5057441,127.1141396,1983,30년이상
신천동 11-8,송파구,신천동,더샵스타리버,17,37.5177114,127.1043997,2006,10~20년
신천동 17-6,송파구,신천동,미성,59,37.5174897,127.1068877,1987,30년이상
신천동 7,송파구,신천동,장미1,136,37.5188607,127.0992536,1979,30년이상
신천동 11,송파구,신천동,장미2,87,37.5198479,127.102752,1979,30년이상
신천동 20-4,송파구,신천동,진주,56,37.5183239,127.1106923,1980,30년이상
신천동 17,송파구,신천동,파크리오,550,37.5211214,127.1094588,2008,10~20년
신천동 7-17,송파구,신천동,한빛웰리스,4,37.5152717,127.0994664,1996,20~30년
신천동 11-9,송파구,신천동,한신코아,27,37.5161383,127.1041787,1988,30년이상
오금동 2,송파구,오금동,대림,43,37.5103481,127.1291211,1995,20~30년
오금동 165,송파구,오금동,상아,92,37.4979912,127.135763,1989,20~30년
오금동 67,송파구,오금동,아남,46,37.5030558,127.1361038,1994,20~30년
오금동 71-8,송파구,오금동,오금그랑밸리,1,37.5032261,127.1340106,2002,10~20년
오금동 615,송파구,오금동,올림픽파크센트레빌,16,37.5101137,127.1276353,2009,10년미만
오금동 164,송파구,오금동,우창,27,37.4992856,127.1369367,1985,30년이상
오금동 43,송파구,오금동,현대(2-4차),55,37.5057916,127.1263283,1984,30년이상
잠실동 40,송파구,잠실동,갤러리아팰리스,51,37.5110067,127.0940034,2005,10~20년
잠실동 44,송파구,잠실동,레이크팰리스,222,37.5084808,127.0946764,2006,10~20년
잠실동 22,송파구,잠실동,리센츠,353,37.5140313,127.0882363,2008,10~20년
잠실동 101-1,송파구,잠실동,우성아파트,68,37.5068555,127.0729819,1981,30년이상
잠실동 19,송파구,잠실동,잠실엘스,346,37.5169204,127.1107338,2008,10~20년
잠실동 27,송파구,잠실동,주공아파트 5단지,261,37.515194,127.0948475,1978,30년이상
잠실동 35,송파구,잠실동,트리지움,247,37.5098111,127.0895602,2007,10~20년
장지동 856,송파구,장지동,송파파인타운10단지,26,37.4775868,127.1306185,2007,10~20년
장지동 854,송파구,장지동,송파파인타운11단지,38,37.4796497,127.1331261,2007,10~20년
장지동 855,송파구,장지동,송파파인타운12단지,26,37.478468,127.132077,2011,10년미만
장지동 857,송파구,장지동,송파파인타운13단지,28,37.4769815,127.1285712,2011,10년미만
장지동 833,송파구,장지동,송파파인타운1단지,28,37.4867498,127.1346905,2010,10년미만
장지동 835,송파구,장지동,송파파인타운2단지,13,37.4840607,127.1311959,2008,10~20년
장지동 849,송파구,장지동,송파파인타운3단지,89,37.483675,127.1326658,2008,10~20년
장지동 847,송파구,장지동,송파파인타운6단지,49,37.4805212,127.1319153,2008,10~20년
장지동 844,송파구,장지동,송파파인타운7단지,38,37.4790559,127.1306671,2007,10~20년
장지동 842,송파구,장지동,송파파인타운8단지,12,37.4792025,127.1284301,2008,10~20년
장지동 843,송파구,장지동,송파파인타운9단지,23,37.47807,127.1288062,2007,10~20년
장지동 879,송파구,장지동,위례22단지(비발디),215,37.4773867,127.1285282,2013,10년미만
장지동 901,송파구,장지동,위례24단지(꿈에그린),302,37.4773867,127.1285282,2013,10년미만
풍납동 299-1,송파구,풍납동,강변현대,7,37.5342156,127.1116362,1991,20~30년
풍납동 506,송파구,풍납동,동아한가람1,87,37.5371027,127.115612,1995,20~30년
풍납동 219,송파구,풍납동,미성,23,37.5342023,127.1138235,1987,30년이상
풍납동 220-2,송파구,풍납동,신동아파밀리에,9,37.5336423,127.114483,2002,10~20년
풍납동 510,송파구,풍납동,신성노바빌아파트,31,37.5385138,127.1166964,2000,10~20년
풍납동 401-1,송파구,풍납동,쌍용,47,37.5272233,127.1177482,1995,20~30년
풍납동 251-2,송파구,풍납동,토성현대,13,37.5324338,127.1162601,1986,30년이상
풍납동 508,송파구,풍납동,한강극동,77,37.5292392,127.1128425,1995,20~30년
풍납동 413-1,송파구,풍납동,현대1,56,37.5294251,127.1190188,1994,20~30년
풍납동 260,송파구,풍납동,현대리버빌1지구,66,37.530784,127.1154128,1999,10~20년
풍납동 261,송파구,풍납동,현대리버빌2지구,42,37.5319897,127.1167496,1999,10~20년
목동 555-4,양천구,목동,CG아름채 목동아파트,5,37.5433565,126.8708134,2016,10년미만
목동 758-1,양천구,목동,강산빌라트,4,37.5369691,126.8714743,1993,20~30년
목동 928,양천구,목동,건영,15,37.5417655,126.8726252,1997,20~30년
목동 752-1,양천구,목동,극동늘푸른,21,37.5381408,126.8720767,2000,10~20년
목동 768-5,양천구,목동,금호아파트(768),9,37.535949,126.8670362,1995,20~30년
목동 808-5,양천구,목동,대원칸타빌,18,37.5284864,126.8648581,2001,10~20년
목동 941,양천구,목동,대원칸타빌2,35,37.5320423,126.8673385,2003,10~20년
목동 944,양천구,목동,대원칸타빌3,8,37.5308754,126.867148,2003,10~20년
목동 724-2,양천구,목동,동구햇살아파트,9,37.5385852,126.865049,2003,10~20년
목동 950,양천구,목동,목동 이-편한세상,33,37.5390836,126.8716371,2006,10~20년
목동 773-3,양천구,목동,목동글로리파크,1,37.5335003,126.8695126,2003,10~20년
목동 945,양천구,목동,목동노블레스,9,37.5356342,126.8686918,2007,10~20년
목동 739-1,양천구,목동,목동보미리즌빌,4,37.5391003,126.8663254,2006,10~20년
목동 763-1,양천구,목동,목동성원,14,37.5354,126.8696412,2000,10~20년
목동 902,양천구,목동,목동신시가지2,86,37.5373375,126.8762856,1986,30년이상
목동 903,양천구,목동,목동신시가지3,94,37.5341289,126.8730672,1986,30년이상
목동 912,양천구,목동,목동신시가지5,79,37.533911,126.8809454,1986,30년이상
목동 929,양천구,목동,목동청구한신아파트,111,37.5414738,126.8816618,1997,20~30년
목동 905-22,양천구,목동,목동트윈빌,16,37.5321473,126.87673,2000,10~20년
목동 908-28,양천구,목동,부영2,10,37.5363346,126.8811128,2000,10~20년
목동 933,양천구,목동,삼익,16,37.5228008,126.876533,1983,30년이상
목동 709-2,양천구,목동,성원2,32,37.5421099,126.8641005,2000,10~20년
목동 722-5,양천구,목동,세종그랑시아,9,37.5383326,126.8640763,2003,10~20년
목동 772-7,양천구,목동,신동아파밀리에,7,37.5345963,126.869461,2002,10~20년
목동 960,양천구,목동,신한이모르젠,15,37.548982,126.8644669,2006,10~20년
목동 200,양천구,목동,우성,35,37.5411913,126.8755307,1996,20~30년
목동 947,양천구,목동,월드메르디앙3,8,37.5252862,126.8761914,2003,10~20년
목동 962-1,양천구,목동,트라팰리스 이스턴에비뉴,29,37.5256299,126.8712232,2009,10년미만
목동 961,양천구,목동,하이페리온2,47,37.5241644,126.8703368,2006,10~20년
목동 743-21,양천구,목동,한일,1,37.5390466,126.8681525,2004,10~20년
목동 940,양천구,목동,현대I-PARK,7,37.5289944,126.8650201,2003,10~20년
신월동 24-5,양천구,신월동,강국,2,35.2268788,128.6950184,2006,10~20년
신월동 533-1,양천구,신월동,금용,10,37.5206791,126.8425053,1998,20~30년
신월동 538-6,양천구,신월동,길성,1,37.5189698,126.841672,2000,10~20년
신월동 547-9,양천구,신월동,당곡,6,37.5176125,126.8397077,2002,10~20년
신월동 1033,양천구,신월동,대성유니드,18,37.520508,126.8406776,2009,10년미만
신월동 1028,양천구,신월동,대주파크빌,7,37.157826,128.1866038,2004,10~20년
신월동 1052,양천구,신월동,동도센트리움,5,37.1551879,128.1897665,2007,10~20년
신월동 331-101,양천구,신월동,디아이빌101동(331-101),5,37.5236601,126.8286462,2007,10~20년
신월동 1063,양천구,신월동,롯데캐슬,97,37.3642832,128.6819061,2003,10~20년
신월동 1030,양천구,신월동,방주기픈샘,2,37.1582431,128.1866938,2004,10~20년
신월동 1022,양천구,신월동,벽산블루밍1단지,14,37.1566166,128.1866763,2003,10~20년
신월동 429-1,양천구,신월동,성우,8,37.5240965,126.8410101,1998,20~30년
신월동 547-5,양천구,신월동,세아쎄닛빌,7,37.5180601,126.8395005,2002,10~20년
신월동 1036,양천구,신월동,수명산롯데캐슬,22,37.1598279,128.1897095,2008,10~20년
신월동 591-1,양천구,신월동,신안약수,28,37.5165613,126.8474669,1985,30년이상
신월동 350-2,양천구,신월동,신안파크,30,37.5233043,126.8296575,1987,30년이상
신월동 125,양천구,신월동,신월6차보람,9,37.1534399,128.2000543,2005,10~20년
신월동 1032,양천구,신월동,신월동방원,6,37.1587174,128.1887992,2004,10~20년
신월동 987-1,양천구,신월동,신월시영,195,37.5177974,126.8342309,1988,30년이상
신월동 1055,양천구,신월동,신정두산위브,25,37.1544043,128.1900742,2012,10년미만
신월동 1027,양천구,신월동,양천벽산블루밍2단지,21,37.525021,126.8386291,2006,10~20년
신월동 1048,양천구,신월동,양천벽산블루밍3단지,3,37.5237197,126.8390644,2006,10~20년
신월동 494-4,양천구,신월동,예건미예뜰1동,3,35.7670743,126.8890414,2004,10~20년
신월동 1065,양천구,신월동,은성마을 승윤노블리안,3,37.1553375,128.1880444,2013,10년미만
신월동 1051,양천구,신월동,정은스카이빌2차,5,37.5203893,126.8391421,2007,10~20년
신월동 494-8,양천구,신월동,제일캐슬,8,35.5294286,126.8596986,2003,10~20년
신월동 1007-11,양천구,신월동,청송,2,37.5162986,126.8393219,2002,10~20년
신월동 197-2,양천구,신월동,코아루1단지,17,37.5316622,126.8295653,2009,10년미만
신월동 1058,양천구,신월동,코아루2단지,8,37.5315759,126.8286763,2010,10년미만
신월동 217-8,양천구,신월동,해주,6,37.5270877,126.8347629,2001,10~20년
신정동 333,양천구,신정동,대림,23,37.5177284,126.8735526,1995,20~30년
신정동 1198-3,양천구,신정동,대성유니드2차,23,37.5208696,126.8486258,2004,10~20년
신정동 1308,양천구,신정동,동원로데오(1308),5,35.5094153,126.8552008,2006,10~20년
신정동 1310,양천구,신정동,동일하이빌1단지,17,37.5118742,126.8391993,2005,10~20년
신정동 1311,양천구,신정동,동일하이빌2단지,41,37.5108276,126.8401554,2005,10~20년
신정동 958-10,양천구,신정동,럭키,3,37.5232034,126.8579117,1992,20~30년
신정동 1295,양천구,신정동,목동2삼성래미안,27,37.5101437,126.8680123,2001,10~20년
신정동 318-12,양천구,신정동,목동삼성쉐르빌Ⅱ,13,37.5215822,126.8704402,2004,10~20년
신정동 325,양천구,신정동,목동신시가지11,109,37.5104801,126.8591496,1988,30년이상
신정동 326,양천구,신정동,목동신시가지12,116,37.5131601,126.8605838,1988,30년이상
신정동 327,양천구,신정동,목동신시가지13,144,35.4006464,127.3585219,1987,30년이상
신정동 329,양천구,신정동,목동신시가지14,209,35.4006436,127.3581785,1987,30년이상
신정동 312,양천구,신정동,목동신시가지9,127,35.479482,126.8428023,1987,30년이상
신정동 1323,양천구,신정동,목동힐스테이트,61,35.5053979,126.8492173,2016,10년미만
신정동 921-11,양천구,신정동,보람쉬움,10,37.5251904,126.8556131,2003,10~20년
신정동 318-10,양천구,신정동,삼성쉐르빌,16,37.522656,126.8704207,2006,10~20년
신정동 1013-1,양천구,신정동,서일해오름103,1,35.5048617,126.8399946,2005,10~20년
신정동 201-1,양천구,신정동,세양청마루2차주상복합,7,37.5082423,126.8645166,2008,10~20년
신정동 733-31,양천구,신정동,수정,18,37.5125171,126.8419968,1987,30년이상
신정동 1219-1,양천구,신정동,신일해피트리,7,37.5172042,126.848716,2004,10~20년
신정동 743-2,양천구,신정동,신정6현대,40,37.5081845,126.8416803,2000,10~20년
신정동 1273,양천구,신정동,신정현대5,38,37.5121779,126.8546162,1999,10~20년
신정동 1259,양천구,신정동,신트리1,87,37.5138147,126.854201,1999,10~20년
신정동 1277,양천구,신정동,신트리4,72,37.5112227,126.8508937,2000,10~20년
신정동 948-24,양천구,신정동,신호,3,37.5246602,126.8552038,1997,20~30년
신정동 1296,양천구,신정동,아이파크,48,37.521592,126.8723214,2004,10~20년
신정동 1321,양천구,신정동,이펜하우스1단지,19,35.5058134,126.8484596,2011,10년미만
신정동 1316,양천구,신정동,이펜하우스3단지,17,35.5105609,126.8521619,2011,10년미만
신정동 1020-3,양천구,신정동,제이월드,2,35.5078298,126.8391637,2001,10~20년
신정동 1314,양천구,신정동,중앙하이츠,18,37.5056921,126.8637432,1992,20~30년
신정동 336,양천구,신정동,청구,15,37.5189701,126.8756391,1999,10~20년
신정동 881-6,양천구,신정동,청우,4,37.5287872,126.8597951,2009,10년미만
신정동 339,양천구,신정동,파인빌,6,37.5206004,126.875385,2001,10~20년
신정동 1281,양천구,신정동,푸른마을2,49,37.5134798,126.8352505,2001,10~20년
신정동 1283,양천구,신정동,푸른마을3,32,37.5113607,126.8369168,2001,10~20년
신정동 1285,양천구,신정동,푸른마을4,28,37.5131902,126.8390601,2002,10~20년
신정동 1293,양천구,신정동,학마을1단지,51,37.5080448,126.8443359,2000,10~20년
신정동 1252,양천구,신정동,현대,18,37.5172967,126.8744833,1987,30년이상
당산동 376,영등포구,당산동,강변래미안,84,37.5294711,126.9084217,2002,10~20년
당산동1가 457,영등포구,당산동1가,신동아파밀리에,14,37.5197592,126.9004025,2002,10~20년
당산동2가 16-1,영등포구,당산동2가,대우,43,37.5211385,126.8929533,2000,10~20년
당산동2가 164,영등포구,당산동2가,현대,59,37.5235625,126.8949074,1987,30년이상
당산동3가 564,영등포구,당산동3가,당산계룡리슈빌1단지,22,37.5255183,126.8972369,2014,10년미만
당산동3가 565,영등포구,당산동3가,당산계룡리슈빌3단지,33,37.5255183,126.8972369,2014,10년미만
당산동3가 561,영등포구,당산동3가,동부센트레빌,33,37.5244689,126.9003956,2005,10~20년
당산동3가 394,영등포구,당산동3가,삼익,14,37.5279124,126.8953512,1983,30년이상
당산동3가 559,영등포구,당산동3가,쌍용예가클래식,32,37.5274114,126.8935179,1978,30년이상
당산동3가 2-6,영등포구,당산동3가,한양,10,37.5253353,126.9006442,1986,30년이상
당산동4가 94-1,영등포구,당산동4가,당산2차삼성,34,37.5276966,126.8984916,1997,20~30년
당산동4가 96,영등포구,당산동4가,당산동반도유보라팰리스,20,37.5270659,126.9014899,2010,10년미만
당산동4가 98,영등포구,당산동4가,브라운스톤 당산,32,37.5287389,126.8995556,2015,10년미만
당산동4가 91,영등포구,당산동4가,유원제일,49,37.5298399,126.8961476,1983,30년이상
당산동4가 29,영등포구,당산동4가,한강아파트,22,37.5279732,126.9028354,1999,10~20년
당산동4가 92,영등포구,당산동4가,현대2,11,37.5289234,126.8960264,1993,20~30년
당산동4가 88,영등포구,당산동4가,현대3,39,37.5314402,126.8967236,1996,20~30년
당산동4가 30-1,영등포구,당산동4가,현대5,85,37.5296095,126.9008077,1989,20~30년
당산동5가 42,영등포구,당산동5가,삼성래미안,107,37.5318721,126.9031482,2004,10~20년
당산동5가 4-13,영등포구,당산동5가,상아,27,37.5299889,126.9027572,1989,20~30년
당산동5가 7-2,영등포구,당산동5가,유원2,41,37.5330071,126.8981748,1984,30년이상
대림동 687,영등포구,대림동,다청림 102동,2,35.8714686,128.7459168,2008,10~20년
대림동 1061,영등포구,대림동,문영칸타빌레,9,37.489667,126.8972852,2001,10~20년
대림동 650,영등포구,대림동,성원(650),22,35.8666921,128.7485916,1995,20~30년
대림동 1125,영등포구,대림동,신대림2차신동아파밀리에,13,37.4955091,126.899438,2016,10년미만
대림동 1122,영등포구,대림동,신대림자이2단지,18,37.485907,126.9022308,2007,10~20년
대림동 777-1,영등포구,대림동,신동아,60,37.4968124,126.8946051,1992,20~30년
대림동 1120,영등포구,대림동,온누리,4,37.4953499,126.9044539,2007,10~20년
대림동 762-1,영등포구,대림동,우성1,43,35.8687368,128.7447352,1988,30년이상
대림동 607-1,영등포구,대림동,코오롱,50,37.5069619,126.8947258,1997,20~30년
대림동 1123,영등포구,대림동,한솔솔파크,21,37.4872678,126.8994463,2005,10~20년
대림동 785-1,영등포구,대림동,현대1,34,37.5020578,126.8948422,1994,20~30년
대림동 785,영등포구,대림동,현대2,13,35.8683165,128.7455108,1993,20~30년
대림동 608-1,영등포구,대림동,현대3,113,37.5055645,126.8956059,1996,20~30년
도림동 221-1,영등포구,도림동,도림청구,8,37.5092808,126.8955523,1997,20~30년
도림동 821,영등포구,도림동,영등포아트자이,71,36.0182623,128.9348022,2014,10년미만
문래동2가 35,영등포구,문래동2가,남성,23,37.5126876,126.891887,1983,30년이상
문래동3가 13,영등포구,문래동3가,문래동해태,3,37.5171333,126.9014331,1999,10~20년
문래동3가 54,영등포구,문래동3가,문래자이,93,37.5160898,126.8967856,2001,10~20년
문래동3가 77-2,영등포구,문래동3가,한신,27,37.517359,126.8929933,1991,20~30년
문래동4가 67,영등포구,문래동4가,리버뷰신안인스빌1단지,13,37.5141366,126.8886418,2008,10~20년
문래동4가 43,영등포구,문래동4가,문래동삼환,26,37.5137083,126.8894739,2001,10~20년
문래동5가 1,영등포구,문래동5가,문래대림,12,37.5169605,126.8879846,2000,10~20년
문래동6가 54,영등포구,문래동6가,미원,10,37.5198753,126.8863451,1996,20~30년
문래동6가 38-1,영등포구,문래동6가,베어스타운,24,37.5191162,126.8850668,1997,20~30년
문래동6가 11-1,영등포구,문래동6가,유원문래,7,37.5210372,126.887829,1991,20~30년
문래동6가 43,영등포구,문래동6가,한신,22,37.5192004,126.8840565,1991,20~30년
문래동6가 45,영등포구,문래동6가,현대2,22,37.520374,126.8830537,1993,20~30년
문래동6가 55-1,영등포구,문래동6가,현대6,31,37.5183748,126.8836503,1997,20~30년
신길동 364,영등포구,신길동,건영,25,37.3301473,126.7608213,1997,20~30년
신길동 67-1,영등포구,신길동,경남,40,37.5156487,126.9183614,1989,20~30년
신길동 496,영등포구,신길동,길성그랑프리텔,4,37.4997092,126.9188413,2002,10~20년
신길동 3002,영등포구,신길동,남서울,83,37.502223,126.9123528,1974,30년이상
신길동 4312,영등포구,신길동,대방,1,37.4979806,126.91762,1972,30년이상
신길동 389,영등포구,신길동,대성유니드,6,37.5014622,126.9029645,2009,10년미만
신길동 329-94,영등포구,신길동,래미안 영등포 프레비뉴,56,37.505104,126.9081964,2015,10년미만
신길동 4780,영등포구,신길동,보라매경남아너스빌,35,37.4948794,126.9100947,2005,10~20년
신길동 2-3,영등포구,신길동,삼두,21,37.5144891,126.923888,1987,30년이상
신길동 4759,영등포구,신길동,삼성,61,37.4962965,126.9113328,1997,20~30년
신길동 4934,영등포구,신길동,삼성래미안,66,37.5052783,126.9153815,2004,10~20년
신길동 897-1,영등포구,신길동,삼환,68,37.5079184,126.9193088,1995,20~30년
신길동 261-22,영등포구,신길동,신길레전드 힐스,11,37.5055803,126.9083512,2013,10년미만
신길동 340-1,영등포구,신길동,신미,4,37.5013824,126.907183,1981,30년이상
신길동 365,영등포구,신길동,우성1,44,37.3300595,126.7611286,1988,30년이상
신길동 102-8,영등포구,신길동,우성4,33,37.5139257,126.9176431,1989,20~30년
신길동 4937,영등포구,신길동,한화꿈에그린,28,37.5029226,126.9094598,2005,10~20년
양평동1가 20,영등포구,양평동1가,신동아,43,37.5221895,126.8865789,1992,20~30년
양평동1가 14-1,영등포구,양평동1가,한신공영,9,37.5215137,126.8880086,1996,20~30년
양평동2가 23,영등포구,양평동2가,벽산,41,37.5222646,126.8830742,1999,10~20년
양평동3가 90-1,영등포구,양평동3가,거성파스텔,40,37.5314592,126.8919228,1999,10~20년
양평동3가 24,영등포구,양평동3가,삼천리,17,37.5258963,126.8857058,1998,20~30년
양평동3가 66,영등포구,양평동3가,삼호,15,37.5281859,126.8930007,1999,10~20년
